{
  "generated_at": "2026-04-19T15:18:12.754Z",
  "source_input": "data/raw/re_20251231.csv",
  "total_records": 1389,
  "entries": {
    "prop_c699c008f9d491": {
      "lat": 50.7874,
      "lng": 5.52266,
      "source": "address_country_photon",
      "geocode_query": "Tongeren DC3, Heesterveldweg, 3700, Tongeren, Belgium",
      "address": "Tongeren DC3, Heesterveldweg, 3700, Tongeren",
      "city": "Tongeren",
      "country": "Belgium",
      "updated_at": "2026-04-19T15:03:23.364Z"
    },
    "prop_81f44b719f53a2": {
      "lat": 51.0914713,
      "lng": 4.2573122,
      "source": "address_country_photon",
      "geocode_query": "Bornem DC2, Pedro Colomalaan 11, 2880, Bornem, Belgium",
      "address": "Bornem DC2, Pedro Colomalaan 11, 2880, Bornem",
      "city": "Bornem",
      "country": "Belgium",
      "updated_at": "2026-04-19T15:03:23.557Z"
    },
    "prop_2d1e6d022bc9f0": {
      "lat": 50.7874,
      "lng": 5.52266,
      "source": "address_country_photon",
      "geocode_query": "Tongeren DC2, Heesterveldweg 14, 3700, Tongeren, Belgium",
      "address": "Tongeren DC2, Heesterveldweg 14, 3700, Tongeren",
      "city": "Tongeren",
      "country": "Belgium",
      "updated_at": "2026-04-19T15:03:24.058Z"
    },
    "prop_63db85b7ef150a": {
      "lat": 51.0914713,
      "lng": 4.2573122,
      "source": "address_country_photon",
      "geocode_query": "Bornem DC1, Pedro Colomalaan 11, 2880, Bornem, Belgium",
      "address": "Bornem DC1, Pedro Colomalaan 11, 2880, Bornem",
      "city": "Bornem",
      "country": "Belgium",
      "updated_at": "2026-04-19T15:03:24.233Z"
    },
    "prop_6bd44bc9b62bcb": {
      "lat": 50.7908982,
      "lng": 5.5267697,
      "source": "address_country_photon",
      "geocode_query": "Tongeren DC1, Limesweg 6, 3700, Tongeren, Belgium",
      "address": "Tongeren DC1, Limesweg 6, 3700, Tongeren",
      "city": "Tongeren",
      "country": "Belgium",
      "updated_at": "2026-04-19T15:03:24.649Z"
    },
    "prop_3a281b4132a0f1": {
      "lat": 50.0864234,
      "lng": 14.4156772,
      "source": "city_country_photon",
      "geocode_query": "Štěnovice, Czech Republic",
      "address": "Pilsen-Stenovice DC2, Dobřanská 537, 332 09, Štěnovice",
      "city": "Štěnovice",
      "country": "Czech Republic",
      "updated_at": "2026-04-19T15:03:25.959Z"
    },
    "prop_e648f352867774": {
      "lat": 50.1274617,
      "lng": 14.6929238,
      "source": "address_country_photon",
      "geocode_query": "Prague-Jirny DC6, Poděbradská 607, 250 90, Prague, Czech Republic",
      "address": "Prague-Jirny DC6, Poděbradská 607, 250 90, Prague",
      "city": "Prague",
      "country": "Czech Republic",
      "updated_at": "2026-04-19T15:03:26.207Z"
    },
    "prop_9f705815548a58": {
      "lat": 49.9719329,
      "lng": 14.6220727,
      "source": "city_country_photon",
      "geocode_query": "Říčany-Jažlovice, Czech Republic",
      "address": "Prague D1 East DC2, Na Dlouhém 80, 251 01, Říčany-Jažlovice",
      "city": "Říčany-Jažlovice",
      "country": "Czech Republic",
      "updated_at": "2026-04-19T15:03:27.549Z"
    },
    "prop_67cde8c1357919": {
      "lat": 49.9719329,
      "lng": 14.6220727,
      "source": "cache_city_country",
      "geocode_query": "Říčany-Jažlovice, Czech Republic",
      "address": "Prague D1 East DC3, Na Dlouhém 82, 251 01, Říčany-Jažlovice",
      "city": "Říčany-Jažlovice",
      "country": "Czech Republic",
      "updated_at": "2026-04-19T15:03:28.508Z"
    },
    "prop_9219bf2846b6d7": {
      "lat": 50.1274617,
      "lng": 14.6929238,
      "source": "name_city_country_photon",
      "geocode_query": "Prague-Jirny DC4 Extension, Prague, Czech Republic",
      "address": "Prague-Jirny DC4 Extension, Poděbradská 607, 250 90, Prague",
      "city": "Prague",
      "country": "Czech Republic",
      "updated_at": "2026-04-19T15:03:29.586Z"
    },
    "prop_d271379a11b1e7": {
      "lat": 50.0864234,
      "lng": 14.4156772,
      "source": "city_country_photon",
      "geocode_query": "Prague, Czech Republic",
      "address": "Prague D1 East DC8, Na Dlouhém Říčany-Jažlovice, 251 01, Prague",
      "city": "Prague",
      "country": "Czech Republic",
      "updated_at": "2026-04-19T15:03:30.793Z"
    },
    "prop_9e98b6337c50db": {
      "lat": 50.1274617,
      "lng": 14.6929238,
      "source": "address_country_photon",
      "geocode_query": "Prague-Jirny DC7, Poděbradská 607, 250 90, Prague, Czech Republic",
      "address": "Prague-Jirny DC7, Poděbradská 607, 250 90, Prague",
      "city": "Prague",
      "country": "Czech Republic",
      "updated_at": "2026-04-19T15:03:31.364Z"
    },
    "prop_fb77915589c592": {
      "lat": 50.0864234,
      "lng": 14.4156772,
      "source": "cache_city_country",
      "geocode_query": "Prague, Czech Republic",
      "address": "Prague D1 East DC9, Na Dlouhém Říčany-Jažlovice, 251 01, Prague",
      "city": "Prague",
      "country": "Czech Republic",
      "updated_at": "2026-04-19T15:03:32.192Z"
    },
    "prop_c5aeb22f64be35": {
      "lat": 49.9719329,
      "lng": 14.6220727,
      "source": "cache_city_country",
      "geocode_query": "Říčany-Jažlovice, Czech Republic",
      "address": "Prague D1 East DC1, Na Dlouhém 79, 251 01, Říčany-Jažlovice",
      "city": "Říčany-Jažlovice",
      "country": "Czech Republic",
      "updated_at": "2026-04-19T15:03:33.178Z"
    },
    "prop_ac46ef28e6a3c7": {
      "lat": 50.1274617,
      "lng": 14.6929238,
      "source": "address_country_photon",
      "geocode_query": "Prague-Jirny DC5A, Poděbradská 607, 250 90, Prague, Czech Republic",
      "address": "Prague-Jirny DC5A, Poděbradská 607, 250 90, Prague",
      "city": "Prague",
      "country": "Czech Republic",
      "updated_at": "2026-04-19T15:03:33.585Z"
    },
    "prop_fc55d28b73e787": {
      "lat": 50.0864234,
      "lng": 14.4156772,
      "source": "cache_city_country",
      "geocode_query": "Prague, Czech Republic",
      "address": "Prague-Jirny DC4B Extension, Poděbradská 607, 250 90, Prague",
      "city": "Prague",
      "country": "Czech Republic",
      "updated_at": "2026-04-19T15:03:34.641Z"
    },
    "prop_676f923754a42c": {
      "lat": 50.0864234,
      "lng": 14.4156772,
      "source": "cache_city_country",
      "geocode_query": "Štěnovice, Czech Republic",
      "address": "Pilsen-Stenovice DC3, Dobřanská 538, 332 09, Štěnovice",
      "city": "Štěnovice",
      "country": "Czech Republic",
      "updated_at": "2026-04-19T15:03:35.521Z"
    },
    "prop_d75c6fd7a2d8de": {
      "lat": 49.6786153,
      "lng": 13.4218247,
      "source": "address_country_photon",
      "geocode_query": "Pilsen-Stenovice DC1, Dobřanská, 332 09, Štěnovice, Czech Republic",
      "address": "Pilsen-Stenovice DC1, Dobřanská, 332 09, Štěnovice",
      "city": "Štěnovice",
      "country": "Czech Republic",
      "updated_at": "2026-04-19T15:03:35.972Z"
    },
    "prop_bd482b7c41d4ae": {
      "lat": 49.9719329,
      "lng": 14.6220727,
      "source": "cache_city_country",
      "geocode_query": "Říčany-Jažlovice, Czech Republic",
      "address": "Prague D1 East DC7B, Na Dlouhém 90, 251 01, Říčany-Jažlovice",
      "city": "Říčany-Jažlovice",
      "country": "Czech Republic",
      "updated_at": "2026-04-19T15:03:36.841Z"
    },
    "prop_98a95d940f9b48": {
      "lat": 50.1274617,
      "lng": 14.6929238,
      "source": "address_country_photon",
      "geocode_query": "Prague-Jirny DC5B, Poděbradská 607, 250 90, Prague, Czech Republic",
      "address": "Prague-Jirny DC5B, Poděbradská 607, 250 90, Prague",
      "city": "Prague",
      "country": "Czech Republic",
      "updated_at": "2026-04-19T15:03:37.405Z"
    },
    "prop_57e3ab116d36d9": {
      "lat": 49.9719329,
      "lng": 14.6220727,
      "source": "cache_city_country",
      "geocode_query": "Říčany-Jažlovice, Czech Republic",
      "address": "Prague D1 East DC6B, Na Dlouhém 91, 251 01, Říčany-Jažlovice",
      "city": "Říčany-Jažlovice",
      "country": "Czech Republic",
      "updated_at": "2026-04-19T15:03:38.225Z"
    },
    "prop_c73a9d606aa03d": {
      "lat": 50.1274617,
      "lng": 14.6929238,
      "source": "address_country_photon",
      "geocode_query": "Prague-Jirny DC4, Poděbradská 607, 250 90, Prague, Czech Republic",
      "address": "Prague-Jirny DC4, Poděbradská 607, 250 90, Prague",
      "city": "Prague",
      "country": "Czech Republic",
      "updated_at": "2026-04-19T15:03:38.637Z"
    },
    "prop_2b282ecf304bd4": {
      "lat": 49.9719329,
      "lng": 14.6220727,
      "source": "cache_city_country",
      "geocode_query": "Říčany-Jažlovice, Czech Republic",
      "address": "Prague D1 East DC7A, Na Dlouhém 85, 251 01, Říčany-Jažlovice",
      "city": "Říčany-Jažlovice",
      "country": "Czech Republic",
      "updated_at": "2026-04-19T15:03:39.490Z"
    },
    "prop_17c7a2502e831a": {
      "lat": 49.9719329,
      "lng": 14.6220727,
      "source": "cache_city_country",
      "geocode_query": "Říčany-Jažlovice, Czech Republic",
      "address": "Prague D1 East DC6A, Na Dlouhém 86, 251 01, Říčany-Jažlovice",
      "city": "Říčany-Jažlovice",
      "country": "Czech Republic",
      "updated_at": "2026-04-19T15:03:40.685Z"
    },
    "prop_ffd7b387efca72": {
      "lat": 49.9719329,
      "lng": 14.6220727,
      "source": "cache_city_country",
      "geocode_query": "Říčany-Jažlovice, Czech Republic",
      "address": "Prague D1 East DC5, Na Dlouhém 88, 251 01, Říčany-Jažlovice",
      "city": "Říčany-Jažlovice",
      "country": "Czech Republic",
      "updated_at": "2026-04-19T15:03:41.500Z"
    },
    "prop_116e064671094e": {
      "lat": 49.9719329,
      "lng": 14.6220727,
      "source": "cache_city_country",
      "geocode_query": "Říčany-Jažlovice, Czech Republic",
      "address": "Prague D1 East DC4, Na Dlouhém 83, 251 01, Říčany-Jažlovice",
      "city": "Říčany-Jažlovice",
      "country": "Czech Republic",
      "updated_at": "2026-04-19T15:03:42.629Z"
    },
    "prop_6ddffe77935790": {
      "lat": 48.7845813,
      "lng": 2.4343623,
      "source": "address_country_photon",
      "geocode_query": "Creteil, 2 Rue Marc Seguin, 94000, Créteil, France",
      "address": "Creteil, 2 Rue Marc Seguin, 94000, Créteil",
      "city": "Créteil",
      "country": "France",
      "updated_at": "2026-04-19T15:03:42.862Z"
    },
    "prop_5840ceb021afcf": {
      "lat": 48.8578013,
      "lng": 2.3662381,
      "source": "address_country_photon",
      "geocode_query": "Petit Ilot, 1-3 rue des Italiens, 75009, Paris, France",
      "address": "Petit Ilot, 1-3 rue des Italiens, 75009, Paris",
      "city": "Paris",
      "country": "France",
      "updated_at": "2026-04-19T15:03:43.203Z"
    },
    "prop_ca7b28f22bc51a": {
      "lat": 48.904446,
      "lng": 2.291817,
      "source": "address_country_photon",
      "geocode_query": "Clichy S, 18 Quai de Clichy, 92110, Clichy, France",
      "address": "Clichy S, 18 Quai de Clichy, 92110, Clichy",
      "city": "Clichy",
      "country": "France",
      "updated_at": "2026-04-19T15:03:43.550Z"
    },
    "prop_4398ad2074fae7": {
      "lat": 48.8315,
      "lng": 2.2788469,
      "source": "address_country_photon",
      "geocode_query": "Issy les Moulineaux, 11-17 Rue Guynemer, 92130, Issy-Les-Moulineaux, France",
      "address": "Issy les Moulineaux, 11-17 Rue Guynemer, 92130, Issy-Les-Moulineaux",
      "city": "Issy-Les-Moulineaux",
      "country": "France",
      "updated_at": "2026-04-19T15:03:44.064Z"
    },
    "prop_8580a1fb7793d4": {
      "lat": 43.5433748,
      "lng": 1.5081085,
      "source": "address_country_photon",
      "geocode_query": "Labège, 1151 L'Occitane, 31670, Labège, France",
      "address": "Labège, 1151 L'Occitane, 31670, Labège",
      "city": "Labège",
      "country": "France",
      "updated_at": "2026-04-19T15:03:44.369Z"
    },
    "prop_421ca8694df8c7": {
      "lat": 48.815535,
      "lng": 2.352519,
      "source": "address_country_photon",
      "geocode_query": "Gentilly, 14 Avenue Raspail, 94250, Gentilly, France",
      "address": "Gentilly, 14 Avenue Raspail, 94250, Gentilly",
      "city": "Gentilly",
      "country": "France",
      "updated_at": "2026-04-19T15:03:44.472Z"
    },
    "prop_ed9c46b34aae63": {
      "lat": 47.4791503,
      "lng": -0.5473041,
      "source": "address_country_photon",
      "geocode_query": "Angers 2, 3 Rue René Rouchy, 49100, Angers, France",
      "address": "Angers 2, 3 Rue René Rouchy, 49100, Angers",
      "city": "Angers",
      "country": "France",
      "updated_at": "2026-04-19T15:03:44.983Z"
    },
    "prop_834f5a29e67cdd": {
      "lat": 48.8704492,
      "lng": 2.2868833,
      "source": "address_country_photon",
      "geocode_query": "Victor Hugo, 28-32 Avenue Victor Hugo, 75016, Paris, France",
      "address": "Victor Hugo, 28-32 Avenue Victor Hugo, 75016, Paris",
      "city": "Paris",
      "country": "France",
      "updated_at": "2026-04-19T15:03:45.393Z"
    },
    "prop_3908cc67e9e143": {
      "lat": 50.6262589,
      "lng": 3.1517123,
      "source": "address_country_photon",
      "geocode_query": "Villeneuve Ascq, 1 Rue John Hadley, 59650, Villeneuve-d'Ascq, France",
      "address": "Villeneuve Ascq, 1 Rue John Hadley, 59650, Villeneuve-d'Ascq",
      "city": "Villeneuve-d'Ascq",
      "country": "France",
      "updated_at": "2026-04-19T15:03:45.805Z"
    },
    "prop_10b38a3859cd79": {
      "lat": 43.3010683,
      "lng": 5.370051,
      "source": "address_country_photon",
      "geocode_query": "Marseille 2, 63 Rue de la République, 13002, Marseille, France",
      "address": "Marseille 2, 63 Rue de la République, 13002, Marseille",
      "city": "Marseille",
      "country": "France",
      "updated_at": "2026-04-19T15:03:45.859Z"
    },
    "prop_85f531ee03703f": {
      "lat": 48.8897523,
      "lng": 2.2426873,
      "source": "name_city_country_photon",
      "geocode_query": "Opus 12, Puteaux, France",
      "address": "Opus 12, 79, Esplanade du Général de Gaulle, 4 Place de la Pyramide, 92800, Puteaux",
      "city": "Puteaux",
      "country": "France",
      "updated_at": "2026-04-19T15:03:46.842Z"
    },
    "prop_2aed07f945f6de": {
      "lat": 48.9019052,
      "lng": 2.2617435,
      "source": "address_country_photon",
      "geocode_query": "Courbevoie, 19 Avenue Dubonnet, 92400, Courbevoie, France",
      "address": "Courbevoie, 19 Avenue Dubonnet, 92400, Courbevoie",
      "city": "Courbevoie",
      "country": "France",
      "updated_at": "2026-04-19T15:03:47.441Z"
    },
    "prop_efb6d3b3e05020": {
      "lat": 49.0427814,
      "lng": 2.0726228,
      "source": "address_country_photon",
      "geocode_query": "Cergy 2, 25 Rue des Marjoberts, 95000, Cergy, France",
      "address": "Cergy 2, 25 Rue des Marjoberts, 95000, Cergy",
      "city": "Cergy",
      "country": "France",
      "updated_at": "2026-04-19T15:03:47.575Z"
    },
    "prop_2532c2e271cf35": {
      "lat": 49.2612101,
      "lng": 4.0224363,
      "source": "address_country_photon",
      "geocode_query": "Reims, 1-3 Rue des Sœurs Etienne, 51100, Reims, France",
      "address": "Reims, 1-3 Rue des Sœurs Etienne, 51100, Reims",
      "city": "Reims",
      "country": "France",
      "updated_at": "2026-04-19T15:03:47.852Z"
    },
    "prop_d1d4aeb5665b15": {
      "lat": 49.4376661,
      "lng": 1.1131079,
      "source": "address_country_photon",
      "geocode_query": "Rouen, 1 Rue Françoise Dolto, 76000, Rouen, France",
      "address": "Rouen, 1 Rue Françoise Dolto, 76000, Rouen",
      "city": "Rouen",
      "country": "France",
      "updated_at": "2026-04-19T15:03:48.260Z"
    },
    "prop_ddaad394d71bdf": {
      "lat": 43.6097715,
      "lng": 1.431831,
      "source": "address_country_photon",
      "geocode_query": "Toulouse atl, 20 Bis Boulevard Lascrosses, 31000, Toulouse, France",
      "address": "Toulouse atl, 20 Bis Boulevard Lascrosses, 31000, Toulouse",
      "city": "Toulouse",
      "country": "France",
      "updated_at": "2026-04-19T15:03:48.644Z"
    },
    "prop_daed8103f5fc2f": {
      "lat": 48.8708524,
      "lng": 2.3135879,
      "source": "address_country_photon",
      "geocode_query": "16 Matignon, 16 Avenue Matignon, 75008, Paris, France",
      "address": "16 Matignon, 16 Avenue Matignon, 75008, Paris",
      "city": "Paris",
      "country": "France",
      "updated_at": "2026-04-19T15:03:48.876Z"
    },
    "prop_73021526017a67": {
      "lat": 48.1214085,
      "lng": -1.6305049,
      "source": "address_country_photon",
      "geocode_query": "Rennes, 5 Allée de la Croix des Hêtres, 35700, Rennes, France",
      "address": "Rennes, 5 Allée de la Croix des Hêtres, 35700, Rennes",
      "city": "Rennes",
      "country": "France",
      "updated_at": "2026-04-19T15:03:49.284Z"
    },
    "prop_e246d1ac09648e": {
      "lat": 43.6112422,
      "lng": 3.8767337,
      "source": "name_city_country_photon",
      "geocode_query": "Montpellier, Montpellier, France",
      "address": "Montpellier, 1116 Avenue de la Mer-Raymond Dugrand, 34070, Montpellier",
      "city": "Montpellier",
      "country": "France",
      "updated_at": "2026-04-19T15:03:50.176Z"
    },
    "prop_645533d24d5a87": {
      "lat": 48.3979929,
      "lng": -4.4837864,
      "source": "address_country_photon",
      "geocode_query": "Brest, 16 Rue Boileau, 29200, Brest, France",
      "address": "Brest, 16 Rue Boileau, 29200, Brest",
      "city": "Brest",
      "country": "France",
      "updated_at": "2026-04-19T15:03:50.616Z"
    },
    "prop_a23bdd08083416": {
      "lat": 48.7142345,
      "lng": 2.2016726,
      "source": "address_country_photon",
      "geocode_query": "Saclay, 1 Place Marhuerite Perey, 91120, Palaiseau, France",
      "address": "Saclay, 1 Place Marhuerite Perey, 91120, Palaiseau",
      "city": "Palaiseau",
      "country": "France",
      "updated_at": "2026-04-19T15:03:51.025Z"
    },
    "prop_551728e02b0474": {
      "lat": 45.7766841,
      "lng": 3.0781908,
      "source": "address_country_photon",
      "geocode_query": "Clermont, 71 rue Côte Blatin, 63000, Clermont-Ferrand, France",
      "address": "Clermont, 71 rue Côte Blatin, 63000, Clermont-Ferrand",
      "city": "Clermont-Ferrand",
      "country": "France",
      "updated_at": "2026-04-19T15:03:51.332Z"
    },
    "prop_081857029ba3db": {
      "lat": 48.911729,
      "lng": 2.334267,
      "source": "name_city_country_photon",
      "geocode_query": "Saint Ouen, Saint-Ouen-Sur-Seine, France",
      "address": "Saint Ouen, Zac des Docks – Lot R2a – 36-44 / 62 rue Pierre, 93400, Saint-Ouen-Sur-Seine",
      "city": "Saint-Ouen-Sur-Seine",
      "country": "France",
      "updated_at": "2026-04-19T15:03:52.223Z"
    },
    "prop_f085d2b495bf4f": {
      "lat": 48.8697294,
      "lng": 2.309679,
      "source": "address_country_photon",
      "geocode_query": "RPCE, 12-14 Rond Point des Champs Élysées, 75008, Paris, France",
      "address": "RPCE, 12-14 Rond Point des Champs Élysées, 75008, Paris",
      "city": "Paris",
      "country": "France",
      "updated_at": "2026-04-19T15:03:52.664Z"
    },
    "prop_2610eaaad9a110": {
      "lat": 45.7217409,
      "lng": 4.9145787,
      "source": "address_country_photon",
      "geocode_query": "Lyon Bron, 7 avenue de l'Europe, 69500, Bron, France",
      "address": "Lyon Bron, 7 avenue de l'Europe, 69500, Bron",
      "city": "Bron",
      "country": "France",
      "updated_at": "2026-04-19T15:03:53.046Z"
    },
    "prop_28610ce536ed31": {
      "lat": 47.4817322,
      "lng": -0.6064898,
      "source": "address_country_photon",
      "geocode_query": "Angers, 16 Boulevard de Lavoisier, 49000, Angers, France",
      "address": "Angers, 16 Boulevard de Lavoisier, 49000, Angers",
      "city": "Angers",
      "country": "France",
      "updated_at": "2026-04-19T15:03:53.223Z"
    },
    "prop_da8ead0e94ffa5": {
      "lat": 43.5646849,
      "lng": 1.4889028,
      "source": "address_country_photon",
      "geocode_query": "Toulouse, 2 rue René Cornemont, 31400, Toulouse, France",
      "address": "Toulouse, 2 rue René Cornemont, 31400, Toulouse",
      "city": "Toulouse",
      "country": "France",
      "updated_at": "2026-04-19T15:03:53.552Z"
    },
    "prop_2cff488f32fbd4": {
      "lat": 43.3091267,
      "lng": 5.3766085,
      "source": "address_country_photon",
      "geocode_query": "Marseille, 23 Rue Mathieu Stilatti, 13003, Marseille, France",
      "address": "Marseille, 23 Rue Mathieu Stilatti, 13003, Marseille",
      "city": "Marseille",
      "country": "France",
      "updated_at": "2026-04-19T15:03:53.884Z"
    },
    "prop_fa2139e795cdd3": {
      "lat": 48.8955591,
      "lng": 2.3493462,
      "source": "address_country_photon",
      "geocode_query": "Paris 18, 36 Rue Championnet, 75018, Paris, France",
      "address": "Paris 18, 36 Rue Championnet, 75018, Paris",
      "city": "Paris",
      "country": "France",
      "updated_at": "2026-04-19T15:03:54.231Z"
    },
    "prop_ba903dc284e8b6": {
      "lat": 48.816847,
      "lng": 2.404073,
      "source": "address_country_photon",
      "geocode_query": "Ivry Noécampus, 3 Rue Galilée, 94200, Ivry-sur-Seine, France",
      "address": "Ivry Noécampus, 3 Rue Galilée, 94200, Ivry-sur-Seine",
      "city": "Ivry-sur-Seine",
      "country": "France",
      "updated_at": "2026-04-19T15:03:54.742Z"
    },
    "prop_981ff2503d0658": {
      "lat": 48.8368694,
      "lng": 2.5906989,
      "source": "name_city_country_photon",
      "geocode_query": "Nobel (CSM1) - Studenest, Champs Sur Marne, France",
      "address": "Nobel (CSM1) - Studenest, 4 bis Rue Alfred Nobel, 77420, Champs Sur Marne",
      "city": "Champs Sur Marne",
      "country": "France",
      "updated_at": "2026-04-19T15:03:55.634Z"
    },
    "prop_8705e1a163eeed": {
      "lat": 48.9273069,
      "lng": 2.2745486,
      "source": "address_country_photon",
      "geocode_query": "Asnières, 20 Avenue de la Paix, 92600, Asnières-Sur-Seine, France",
      "address": "Asnières, 20 Avenue de la Paix, 92600, Asnières-Sur-Seine",
      "city": "Asnières-Sur-Seine",
      "country": "France",
      "updated_at": "2026-04-19T15:03:56.046Z"
    },
    "prop_dd53c35e554b2c": {
      "lat": 44.8723994,
      "lng": -0.5544656,
      "source": "address_country_photon",
      "geocode_query": "Bordeaux bassin, 89 Cours Dupré Saint-Maur, 33300, Bordeaux, France",
      "address": "Bordeaux bassin, 89 Cours Dupré Saint-Maur, 33300, Bordeaux",
      "city": "Bordeaux",
      "country": "France",
      "updated_at": "2026-04-19T15:03:56.221Z"
    },
    "prop_ffea3b30b4e20e": {
      "lat": 48.7988713,
      "lng": 2.32187,
      "source": "address_country_photon",
      "geocode_query": "Bagneux, 155 Rue des Meuniers, 92220, Bagneux, France",
      "address": "Bagneux, 155 Rue des Meuniers, 92220, Bagneux",
      "city": "Bagneux",
      "country": "France",
      "updated_at": "2026-04-19T15:03:56.656Z"
    },
    "prop_2ade498478148c": {
      "lat": 48.8646058,
      "lng": 2.4177782,
      "source": "address_country_photon",
      "geocode_query": "Bagnolet, 33 bis Avenue du Général de Gaulle, 93170, Bagnolet, France",
      "address": "Bagnolet, 33 bis Avenue du Général de Gaulle, 93170, Bagnolet",
      "city": "Bagnolet",
      "country": "France",
      "updated_at": "2026-04-19T15:03:56.888Z"
    },
    "prop_a873eec2d73ac7": {
      "lat": 48.8401566,
      "lng": 2.5934893,
      "source": "address_country_photon",
      "geocode_query": "Galilée (CSM2), 2 Rue Galillée, 77420, Champs Sur Marne, France",
      "address": "Galilée (CSM2), 2 Rue Galillée, 77420, Champs Sur Marne",
      "city": "Champs Sur Marne",
      "country": "France",
      "updated_at": "2026-04-19T15:03:57.373Z"
    },
    "prop_bc3f6e704be2c2": {
      "lat": 49.0381371,
      "lng": 2.0767564,
      "source": "address_country_photon",
      "geocode_query": "Cergy, 7 Avenue des Trois Fontaines, 95000, Cergy, France",
      "address": "Cergy, 7 Avenue des Trois Fontaines, 95000, Cergy",
      "city": "Cergy",
      "country": "France",
      "updated_at": "2026-04-19T15:03:57.681Z"
    },
    "prop_1d63ea527bde8b": {
      "lat": 48.9306887,
      "lng": 2.2884816,
      "source": "address_country_photon",
      "geocode_query": "Gennevilliers, 27 Rue Georges, 92230, Gennevilliers, France",
      "address": "Gennevilliers, 27 Rue Georges, 92230, Gennevilliers",
      "city": "Gennevilliers",
      "country": "France",
      "updated_at": "2026-04-19T15:03:57.888Z"
    },
    "prop_ac7bf6a2e76464": {
      "lat": 48.8715543,
      "lng": 2.3359278,
      "source": "address_country_photon",
      "geocode_query": "Grand Ilot, 2 rue des Italiens, 75009, Paris, France",
      "address": "Grand Ilot, 2 rue des Italiens, 75009, Paris",
      "city": "Paris",
      "country": "France",
      "updated_at": "2026-04-19T15:03:58.397Z"
    },
    "prop_37ddb075289916": {
      "lat": 48.041104,
      "lng": 3.0565132,
      "source": "name_city_country_photon",
      "geocode_query": "Gentilly 2, Gentilly, France",
      "address": "Gentilly 2, 12-14-16 Avenue Raspail and 19-23 rue Charles Frérot, 94250, Gentilly",
      "city": "Gentilly",
      "country": "France",
      "updated_at": "2026-04-19T15:03:59.222Z"
    },
    "prop_b6f0f914275947": {
      "lat": 49.2009811,
      "lng": -0.3610963,
      "source": "address_country_photon",
      "geocode_query": "Caen, 49 Avenue de la Côte de Nacre, 14000, Caen, France",
      "address": "Caen, 49 Avenue de la Côte de Nacre, 14000, Caen",
      "city": "Caen",
      "country": "France",
      "updated_at": "2026-04-19T15:03:59.629Z"
    },
    "prop_665fa17e3ac186": {
      "lat": 48.781411,
      "lng": 2.2149404,
      "source": "address_country_photon",
      "geocode_query": "Velizy, 6 rue des Frères Caudron, 78140, Velizy-Villaboublay, France",
      "address": "Velizy, 6 rue des Frères Caudron, 78140, Velizy-Villaboublay",
      "city": "Velizy-Villaboublay",
      "country": "France",
      "updated_at": "2026-04-19T15:04:00.037Z"
    },
    "prop_4d4c74678a4f48": {
      "lat": 48.876147,
      "lng": 2.3131627,
      "source": "address_country_photon",
      "geocode_query": "9 Messine, 9 Avenue de Messine, 75008, Paris, France",
      "address": "9 Messine, 9 Avenue de Messine, 75008, Paris",
      "city": "Paris",
      "country": "France",
      "updated_at": "2026-04-19T15:04:00.220Z"
    },
    "prop_ae3ed01e62eb56": {
      "lat": 48.8717449,
      "lng": 2.3025448,
      "source": "address_country_photon",
      "geocode_query": "100 Champs Elysées, 100 Avenue des Champs-Élysées, 75008, Paris, France",
      "address": "100 Champs Elysées, 100 Avenue des Champs-Élysées, 75008, Paris",
      "city": "Paris",
      "country": "France",
      "updated_at": "2026-04-19T15:04:00.651Z"
    },
    "prop_509aca14b66190": {
      "lat": 48.8403824,
      "lng": 2.3929213,
      "source": "address_country_photon",
      "geocode_query": "183-185 Daumesnil, 183/185 Avenue Daumesnil, 75012, Paris, France",
      "address": "183-185 Daumesnil, 183/185 Avenue Daumesnil, 75012, Paris",
      "city": "Paris",
      "country": "France",
      "updated_at": "2026-04-19T15:04:01.164Z"
    },
    "prop_a9b90beaa0e388": {
      "lat": 48.8727804,
      "lng": 2.3308851,
      "source": "address_country_photon",
      "geocode_query": "15-17 Scribe, 15/17 rue Scribe, 75009, Paris, France",
      "address": "15-17 Scribe, 15/17 rue Scribe, 75009, Paris",
      "city": "Paris",
      "country": "France",
      "updated_at": "2026-04-19T15:04:01.287Z"
    },
    "prop_d00fe64ead67d9": {
      "lat": 48.870209,
      "lng": 2.3228982,
      "source": "address_country_photon",
      "geocode_query": "3-5 Malesherbes, 3-5 Boulevard Malesherbes, 75008, Paris, France",
      "address": "3-5 Malesherbes, 3-5 Boulevard Malesherbes, 75008, Paris",
      "city": "Paris",
      "country": "France",
      "updated_at": "2026-04-19T15:04:01.776Z"
    },
    "prop_f75b6f0d2ae3b7": {
      "lat": 48.8755459,
      "lng": 2.3238908,
      "source": "address_country_photon",
      "geocode_query": "11 Pasquier, 11 Rue Pasquier, 75008, Paris, France",
      "address": "11 Pasquier, 11 Rue Pasquier, 75008, Paris",
      "city": "Paris",
      "country": "France",
      "updated_at": "2026-04-19T15:04:01.984Z"
    },
    "prop_269341164048ba": {
      "lat": 48.8687722,
      "lng": 2.3259196,
      "source": "address_country_photon",
      "geocode_query": "Le Madeleine, 23, Boulevard de la Madeleine, 75001, Paris, France",
      "address": "Le Madeleine, 23, Boulevard de la Madeleine, 75001, Paris",
      "city": "Paris",
      "country": "France",
      "updated_at": "2026-04-19T15:04:02.392Z"
    },
    "prop_567da6462dc029": {
      "lat": 48.8722517,
      "lng": 2.3386966,
      "source": "address_country_photon",
      "geocode_query": "6/8 Haussmann, 6/8 Boulevard Haussmann, 75009, Paris, France",
      "address": "6/8 Haussmann, 6/8 Boulevard Haussmann, 75009, Paris",
      "city": "Paris",
      "country": "France",
      "updated_at": "2026-04-19T15:04:02.699Z"
    },
    "prop_65929a84b972ef": {
      "lat": 48.8734762,
      "lng": 2.3127732,
      "source": "address_country_photon",
      "geocode_query": "La Boétie, 54-56 Rue de la Boétie, 75008, Paris, France",
      "address": "La Boétie, 54-56 Rue de la Boétie, 75008, Paris",
      "city": "Paris",
      "country": "France",
      "updated_at": "2026-04-19T15:04:03.006Z"
    },
    "prop_13d81cc0ad7525": {
      "lat": 48.8710217,
      "lng": 2.3025996,
      "source": "address_country_photon",
      "geocode_query": "79 Avenue des Champs-Elysées, 79 Avenue des Champs-Elysées, 75008, Paris, France",
      "address": "79 Avenue des Champs-Elysées, 79 Avenue des Champs-Elysées, 75008, Paris",
      "city": "Paris",
      "country": "France",
      "updated_at": "2026-04-19T15:04:03.221Z"
    },
    "prop_8d19451c331246": {
      "lat": 48.8659982,
      "lng": 2.332268,
      "source": "name_city_country_photon",
      "geocode_query": "Vendôme Saint Honoré, Paris, France",
      "address": "Vendôme Saint Honoré, 9, Place Vendôme / 368-374 Rue Saint-Honoré, 75001, Paris",
      "city": "Paris",
      "country": "France",
      "updated_at": "2026-04-19T15:04:04.217Z"
    },
    "prop_f406e3c759b656": {
      "lat": 49.49563,
      "lng": 0.3599616,
      "source": "name_city_country_photon",
      "geocode_query": "Le Havre DC4B, Saint-Vigor-d'Ymonville, France",
      "address": "Le Havre DC4B, Parc du Hode Route Industrielle, 76460, Saint-Vigor-d'Ymonville",
      "city": "Saint-Vigor-d'Ymonville",
      "country": "France",
      "updated_at": "2026-04-19T15:04:05.365Z"
    },
    "prop_66b5f7fa79a2d8": {
      "lat": 45.6729757,
      "lng": 5.1062975,
      "source": "name_city_country_photon",
      "geocode_query": "Isle d`Abeau DC5, Satolas-et-Bonce, France",
      "address": "Isle d`Abeau DC5, 23, rue des Combes Parc d'Activites des Chesnes Nord, 38070, Satolas-et-Bonce",
      "city": "Satolas-et-Bonce",
      "country": "France",
      "updated_at": "2026-04-19T15:04:06.285Z"
    },
    "prop_cdb2d6a0339217": {
      "lat": 43.582733,
      "lng": 5.0025809,
      "source": "city_country_photon",
      "geocode_query": "Miramas, France",
      "address": "Clesud DC1, Parc de Activites Clesud, 13140, Miramas",
      "city": "Miramas",
      "country": "France",
      "updated_at": "2026-04-19T15:04:07.565Z"
    },
    "prop_589ca28cab6e73": {
      "lat": 43.582733,
      "lng": 5.0025809,
      "source": "cache_city_country",
      "geocode_query": "Miramas, France",
      "address": "Clesud DC4, Parc de Activites Clesud, 13140, Miramas",
      "city": "Miramas",
      "country": "France",
      "updated_at": "2026-04-19T15:04:08.578Z"
    },
    "prop_3d7e33d5d9731b": {
      "lat": 47.8310392,
      "lng": 1.6791687,
      "source": "address_country_photon",
      "geocode_query": "Orleans DC7, Parc Synergie Val de Loire 6ème avenue, 45130, Meung-sur-Loire, France",
      "address": "Orleans DC7, Parc Synergie Val de Loire 6ème avenue, 45130, Meung-sur-Loire",
      "city": "Meung-sur-Loire",
      "country": "France",
      "updated_at": "2026-04-19T15:04:08.957Z"
    },
    "prop_7b7b1a1dc90a52": {
      "lat": 47.9193001,
      "lng": 1.8224763,
      "source": "name_city_country_photon",
      "geocode_query": "Orleans DC2, Ingre, France",
      "address": "Orleans DC2, Rue des Galardières-Pôle 45 ZAC des Varannes, 45140, Ingre",
      "city": "Ingre",
      "country": "France",
      "updated_at": "2026-04-19T15:04:09.969Z"
    },
    "prop_44299368f96834": {
      "lat": 47.9193001,
      "lng": 1.8224763,
      "source": "name_city_country_photon",
      "geocode_query": "Orleans DC3, Ingre, France",
      "address": "Orleans DC3, Rue des Galardières-Pôle 45 ZAC des Varannes, 45140, Ingre",
      "city": "Ingre",
      "country": "France",
      "updated_at": "2026-04-19T15:04:10.938Z"
    },
    "prop_3ab681b519a1e7": {
      "lat": 48.5960009,
      "lng": 2.4237886,
      "source": "city_country_photon",
      "geocode_query": "Evry Lisses, France",
      "address": "Evry DC4 + Expansion, Zac de la Piece de la Remise, 91090, Evry Lisses",
      "city": "Evry Lisses",
      "country": "France",
      "updated_at": "2026-04-19T15:04:12.324Z"
    },
    "prop_068aacec7abaee": {
      "lat": 43.582733,
      "lng": 5.0025809,
      "source": "cache_city_country",
      "geocode_query": "Miramas, France",
      "address": "Clesud DC2, Parc de Activites Clesud, 13140, Miramas",
      "city": "Miramas",
      "country": "France",
      "updated_at": "2026-04-19T15:04:13.348Z"
    },
    "prop_c0e5ab9c3a8ad9": {
      "lat": 49.49563,
      "lng": 0.3599616,
      "source": "name_city_country_photon",
      "geocode_query": "Le Havre DC4A, Saint-Vigor-d'Ymonville, France",
      "address": "Le Havre DC4A, Parc du Hode Route Industrielle, 76460, Saint-Vigor-d'Ymonville",
      "city": "Saint-Vigor-d'Ymonville",
      "country": "France",
      "updated_at": "2026-04-19T15:04:14.275Z"
    },
    "prop_209c15fedbe883": {
      "lat": 45.6411588,
      "lng": 5.1181656,
      "source": "name_city_country_photon",
      "geocode_query": "Isle d`Abeau DC2, Saint-Quentin-Fallavier, France",
      "address": "Isle d`Abeau DC2, 3, rue des Chapelles Parc d'Activites des Chesnes Nord, 38070, Saint-Quentin-Fallavier",
      "city": "Saint-Quentin-Fallavier",
      "country": "France",
      "updated_at": "2026-04-19T15:04:15.501Z"
    },
    "prop_189c5fee7166ba": {
      "lat": 48.6047291,
      "lng": 2.4309078,
      "source": "name_city_country_photon",
      "geocode_query": "Evry DC2, Evry Lisses, France",
      "address": "Evry DC2, Lieu dit Piece de la Remise, 91090, Evry Lisses",
      "city": "Evry Lisses",
      "country": "France",
      "updated_at": "2026-04-19T15:04:16.319Z"
    },
    "prop_b5defb6ae9caa5": {
      "lat": 49.49563,
      "lng": 0.3599616,
      "source": "name_city_country_photon",
      "geocode_query": "Le Havre DC3, Saint-Vigor-d'Ymonville, France",
      "address": "Le Havre DC3, Route Industrielle Parc du Hode, 76430, Saint-Vigor-d'Ymonville",
      "city": "Saint-Vigor-d'Ymonville",
      "country": "France",
      "updated_at": "2026-04-19T15:04:17.446Z"
    },
    "prop_2dcef204acd488": {
      "lat": 45.6729757,
      "lng": 5.1062975,
      "source": "name_city_country_photon",
      "geocode_query": "Isle d`Abeau DC9, Satolas-et-Bonce, France",
      "address": "Isle d`Abeau DC9, 135 Rue de Brisson, 38290, Satolas-et-Bonce",
      "city": "Satolas-et-Bonce",
      "country": "France",
      "updated_at": "2026-04-19T15:04:18.366Z"
    },
    "prop_6008d07272cd8b": {
      "lat": 45.6729757,
      "lng": 5.1062975,
      "source": "name_city_country_photon",
      "geocode_query": "Isle d`Abeau DC10, Satolas-et-Bonce, France",
      "address": "Isle d`Abeau DC10, 135 Rue de Brisson, 38290, Satolas-et-Bonce",
      "city": "Satolas-et-Bonce",
      "country": "France",
      "updated_at": "2026-04-19T15:04:19.389Z"
    },
    "prop_12ce922d190e2d": {
      "lat": 49.0672657,
      "lng": 2.5659272,
      "source": "name_city_country_photon",
      "geocode_query": "Vemars DC5, Vémars, France",
      "address": "Vemars DC5, ZA Porte de Vémars, 95470, Vémars",
      "city": "Vémars",
      "country": "France",
      "updated_at": "2026-04-19T15:04:20.260Z"
    },
    "prop_9e0c4274db173f": {
      "lat": 43.582733,
      "lng": 5.0025809,
      "source": "cache_city_country",
      "geocode_query": "Miramas, France",
      "address": "Clesud DC3, Parc de Activites Clesud, 13140, Miramas",
      "city": "Miramas",
      "country": "France",
      "updated_at": "2026-04-19T15:04:21.249Z"
    },
    "prop_f74dfc53dff165": {
      "lat": 48.6047291,
      "lng": 2.4309078,
      "source": "name_city_country_photon",
      "geocode_query": "Evry DC3, Evry Lisses, France",
      "address": "Evry DC3, Lieu dit Piece de la Remise, 91090, Evry Lisses",
      "city": "Evry Lisses",
      "country": "France",
      "updated_at": "2026-04-19T15:04:22.463Z"
    },
    "prop_99f86b581d6c46": {
      "lat": 47.8310392,
      "lng": 1.6791687,
      "source": "address_country_photon",
      "geocode_query": "Orleans DC6, Parc Synergie Val de Loire 6ème avenue, 45130, Meung-sur-Loire, France",
      "address": "Orleans DC6, Parc Synergie Val de Loire 6ème avenue, 45130, Meung-sur-Loire",
      "city": "Meung-sur-Loire",
      "country": "France",
      "updated_at": "2026-04-19T15:04:22.689Z"
    },
    "prop_30928cc049676e": {
      "lat": 49.0672657,
      "lng": 2.5659272,
      "source": "name_city_country_photon",
      "geocode_query": "Vemars DC4, Vémars, France",
      "address": "Vemars DC4, ZA Porte de Vémars, 95470, Vémars",
      "city": "Vémars",
      "country": "France",
      "updated_at": "2026-04-19T15:04:23.584Z"
    },
    "prop_a6565c804f6650": {
      "lat": 48.6052754,
      "lng": 2.4419623,
      "source": "address_country_photon",
      "geocode_query": "Evry DC5, Zac de la Piece de la Remise, 91090, Evry Lisses, France",
      "address": "Evry DC5, Zac de la Piece de la Remise, 91090, Evry Lisses",
      "city": "Evry Lisses",
      "country": "France",
      "updated_at": "2026-04-19T15:04:23.948Z"
    },
    "prop_a70b0e1be465fd": {
      "lat": 49.49563,
      "lng": 0.3599616,
      "source": "name_city_country_photon",
      "geocode_query": "Le Havre DC1, Saint-Vigor-d'Ymonville, France",
      "address": "Le Havre DC1, Parc du Hode Route industrielle, 76430, Saint-Vigor-d'Ymonville",
      "city": "Saint-Vigor-d'Ymonville",
      "country": "France",
      "updated_at": "2026-04-19T15:04:25.021Z"
    },
    "prop_cbb02280b061de": {
      "lat": 45.6711014,
      "lng": 5.1056282,
      "source": "name_city_country_photon",
      "geocode_query": "Isle d`Abeau DC6, Satolas-et-Bonce, France",
      "address": "Isle d`Abeau DC6, 23, rue des Combes Parc d'Activites de Chesnes Nord, 38290, Satolas-et-Bonce",
      "city": "Satolas-et-Bonce",
      "country": "France",
      "updated_at": "2026-04-19T15:04:26.046Z"
    },
    "prop_695a5f51e43270": {
      "lat": 45.6707747,
      "lng": 5.1276668,
      "source": "name_city_country_photon",
      "geocode_query": "Isle d`Abeau DC4, Satolas-et-Bonce, France",
      "address": "Isle d`Abeau DC4, 23, rue des Combes Parc d'Activites des Chesnes Nord, 38070, Satolas-et-Bonce",
      "city": "Satolas-et-Bonce",
      "country": "France",
      "updated_at": "2026-04-19T15:04:26.956Z"
    },
    "prop_10fbf8376ace9f": {
      "lat": 48.6055395,
      "lng": 2.3546121,
      "source": "address_country_photon",
      "geocode_query": "Plessis Pate DC2, Rue de la Mare À Blot, 91220, Le Plessis-Pâté, France",
      "address": "Plessis Pate DC2, Rue de la Mare À Blot, 91220, Le Plessis-Pâté",
      "city": "Le Plessis-Pâté",
      "country": "France",
      "updated_at": "2026-04-19T15:04:27.377Z"
    },
    "prop_3335412199efa1": {
      "lat": 50.5893806,
      "lng": 3.1613643,
      "source": "name_city_country_photon",
      "geocode_query": "Lille DC1, Sainghin-en-Mélantois, France",
      "address": "Lille DC1, Rue des Hauts de Sainghin Centre de Gros - No.6 Lesquin, 59273, Sainghin-en-Mélantois",
      "city": "Sainghin-en-Mélantois",
      "country": "France",
      "updated_at": "2026-04-19T15:04:28.299Z"
    },
    "prop_973326b7d41839": {
      "lat": 47.8310392,
      "lng": 1.6791687,
      "source": "address_country_photon",
      "geocode_query": "Orleans DC5, Parc Synergie Val de Loire 6ème avenue, 45130, Meung-sur-Loire, France",
      "address": "Orleans DC5, Parc Synergie Val de Loire 6ème avenue, 45130, Meung-sur-Loire",
      "city": "Meung-sur-Loire",
      "country": "France",
      "updated_at": "2026-04-19T15:04:28.807Z"
    },
    "prop_7fedb14daa5b12": {
      "lat": 49.49563,
      "lng": 0.3599616,
      "source": "name_city_country_photon",
      "geocode_query": "Le Havre DC2, Saint-Vigor-d'Ymonville, France",
      "address": "Le Havre DC2, Route Industrielle Parc du Hode, 76430, Saint-Vigor-d'Ymonville",
      "city": "Saint-Vigor-d'Ymonville",
      "country": "France",
      "updated_at": "2026-04-19T15:04:29.895Z"
    },
    "prop_bef949e312f60a": {
      "lat": 45.6729757,
      "lng": 5.1062975,
      "source": "name_city_country_photon",
      "geocode_query": "Isle d`Abeau DC11, Satolas-et-Bonce, France",
      "address": "Isle d`Abeau DC11, 135 Rue de Brisson, 38290, Satolas-et-Bonce",
      "city": "Satolas-et-Bonce",
      "country": "France",
      "updated_at": "2026-04-19T15:04:30.862Z"
    },
    "prop_4b9c351e6d596b": {
      "lat": 45.6729757,
      "lng": 5.1062975,
      "source": "name_city_country_photon",
      "geocode_query": "Isle d`Abeau DC15, Satolas-et-Bonce, France",
      "address": "Isle d`Abeau DC15, Rue des Combes, 38290, Satolas-et-Bonce",
      "city": "Satolas-et-Bonce",
      "country": "France",
      "updated_at": "2026-04-19T15:04:31.780Z"
    },
    "prop_a7a4a48894ad62": {
      "lat": 47.8268972,
      "lng": 1.6968055,
      "source": "name_city_country_photon",
      "geocode_query": "Orleans DC4, Meung-sur-Loire, France",
      "address": "Orleans DC4, Prologis Dist.Ctr.-Parc Synergie Val de Loire 6ème avenue, 45130, Meung-sur-Loire",
      "city": "Meung-sur-Loire",
      "country": "France",
      "updated_at": "2026-04-19T15:04:32.645Z"
    },
    "prop_3a23094e6ca99e": {
      "lat": 45.6411588,
      "lng": 5.1181656,
      "source": "name_city_country_photon",
      "geocode_query": "Isle d`Abeau DC3, Saint-Quentin-Fallavier, France",
      "address": "Isle d`Abeau DC3, 43, rue des Chapelles Parc d'Activités des Chesnes Nord, 38070, Saint-Quentin-Fallavier",
      "city": "Saint-Quentin-Fallavier",
      "country": "France",
      "updated_at": "2026-04-19T15:04:33.661Z"
    },
    "prop_cfd43b99329924": {
      "lat": 50.5893806,
      "lng": 3.1613643,
      "source": "name_city_country_photon",
      "geocode_query": "Lille DC2, Sainghin-en-Mélantois, France",
      "address": "Lille DC2, Rue du Chemin Vert Centre Gros - No.3 Fretin, 59273, Sainghin-en-Mélantois",
      "city": "Sainghin-en-Mélantois",
      "country": "France",
      "updated_at": "2026-04-19T15:04:34.713Z"
    },
    "prop_d4996c91e14fdc": {
      "lat": 48.6116007,
      "lng": 2.3256213,
      "source": "name_city_country_photon",
      "geocode_query": "Plessis Pate DC1, Le Plessis-Pâté, France",
      "address": "Plessis Pate DC1, Chemin Vicinal 4 ZAC la Tremblaie, 91220, Le Plessis-Pâté",
      "city": "Le Plessis-Pâté",
      "country": "France",
      "updated_at": "2026-04-19T15:04:35.661Z"
    },
    "prop_c3a9384cdc24be": {
      "lat": 49.0672657,
      "lng": 2.5659272,
      "source": "name_city_country_photon",
      "geocode_query": "Vemars DC2, Vémars, France",
      "address": "Vemars DC2, ZA Porte de Vémars, 95470, Vémars",
      "city": "Vémars",
      "country": "France",
      "updated_at": "2026-04-19T15:04:36.798Z"
    },
    "prop_7b597a6602dd46": {
      "lat": 45.6707747,
      "lng": 5.1276668,
      "source": "name_city_country_photon",
      "geocode_query": "Isle d`Abeau DC8, Satolas-et-Bonce, France",
      "address": "Isle d`Abeau DC8, 135 Rue de Brisson, 38290, Satolas-et-Bonce",
      "city": "Satolas-et-Bonce",
      "country": "France",
      "updated_at": "2026-04-19T15:04:37.823Z"
    },
    "prop_983decfa167e63": {
      "lat": 48.6047291,
      "lng": 2.4309078,
      "source": "name_city_country_photon",
      "geocode_query": "Evry DC1, Evry Lisses, France",
      "address": "Evry DC1, Lieu dit Piece de la Remise, 91004, Evry Lisses",
      "city": "Evry Lisses",
      "country": "France",
      "updated_at": "2026-04-19T15:04:38.744Z"
    },
    "prop_a5dd426637826a": {
      "lat": 50.5893806,
      "lng": 3.1613643,
      "source": "name_city_country_photon",
      "geocode_query": "Lille DC3, Sainghin-en-Mélantois, France",
      "address": "Lille DC3, Avenue de l'Epinette ZAC de L'Epinette Seclin, 59113, Sainghin-en-Mélantois",
      "city": "Sainghin-en-Mélantois",
      "country": "France",
      "updated_at": "2026-04-19T15:04:39.769Z"
    },
    "prop_b06a82ce909435": {
      "lat": 48.8742713,
      "lng": 2.324352,
      "source": "address_country_photon",
      "geocode_query": "86 boulevard Haussmann, 86 boulevard Haussmann, 75008, Paris, France",
      "address": "86 boulevard Haussmann, 86 boulevard Haussmann, 75008, Paris",
      "city": "Paris",
      "country": "France",
      "updated_at": "2026-04-19T15:04:39.932Z"
    },
    "prop_f392ae98619793": {
      "lat": 48.8386332,
      "lng": 2.3224866,
      "source": "address_country_photon",
      "geocode_query": "Atelier Gaîté, 82 Avenue du Maine, 75014, Paris, France",
      "address": "Atelier Gaîté, 82 Avenue du Maine, 75014, Paris",
      "city": "Paris",
      "country": "France",
      "updated_at": "2026-04-19T15:04:40.588Z"
    },
    "prop_8fa6546fb41271": {
      "lat": 48.8929649,
      "lng": 2.2410999,
      "source": "address_country_photon",
      "geocode_query": "Tour Trinity, 19 Avenue de la Division Leclerc, 92800, Puteaux, France",
      "address": "Tour Trinity, 19 Avenue de la Division Leclerc, 92800, Puteaux",
      "city": "Puteaux",
      "country": "France",
      "updated_at": "2026-04-19T15:04:40.788Z"
    },
    "prop_6c957fa06178df": {
      "lat": 52.5043819,
      "lng": 13.3300629,
      "source": "address_country_photon",
      "geocode_query": "Kranzler Eck Berlin, Kurfuerstendamm 19-24, 10719, Berlin, Germany",
      "address": "Kranzler Eck Berlin, Kurfuerstendamm 19-24, 10719, Berlin",
      "city": "Berlin",
      "country": "Germany",
      "updated_at": "2026-04-19T15:04:41.071Z"
    },
    "prop_d44e2f9b9d6dd2": {
      "lat": 52.5090583,
      "lng": 13.3982044,
      "source": "address_country_photon",
      "geocode_query": "Schutzenstrasse 26, Schutzenstrasse 26, 10117, Berlin, Germany",
      "address": "Schutzenstrasse 26, Schutzenstrasse 26, 10117, Berlin",
      "city": "Berlin",
      "country": "Germany",
      "updated_at": "2026-04-19T15:04:41.426Z"
    },
    "prop_8fedfbd6c96fff": {
      "lat": 52.5092044,
      "lng": 13.3759366,
      "source": "address_country_photon",
      "geocode_query": "Sony Centre, Potsdamer Platz, 10785, Berlin, Germany",
      "address": "Sony Centre, Potsdamer Platz, 10785, Berlin",
      "city": "Berlin",
      "country": "Germany",
      "updated_at": "2026-04-19T15:04:41.729Z"
    },
    "prop_aef594937293f4": {
      "lat": 52.2850169,
      "lng": 7.533115,
      "source": "name_city_country_photon",
      "geocode_query": "Dortmund DC6, Dortmund, Germany",
      "address": "Dortmund DC6, Gneisenaualle 16-18, 44147, Dortmund",
      "city": "Dortmund",
      "country": "Germany",
      "updated_at": "2026-04-19T15:04:42.840Z"
    },
    "prop_ab3f6226faa54e": {
      "lat": 48.4104816,
      "lng": 10.8572153,
      "source": "address_country_photon",
      "geocode_query": "Augsburg DC2, Freiburger Straße 3, 86156, Augsburg, Germany",
      "address": "Augsburg DC2, Freiburger Straße 3, 86156, Augsburg",
      "city": "Augsburg",
      "country": "Germany",
      "updated_at": "2026-04-19T15:04:43.149Z"
    },
    "prop_64ef0a7e95dc15": {
      "lat": 52.5775102,
      "lng": 13.3024174,
      "source": "address_country_photon",
      "geocode_query": "Berlin DC4, Wittestr. 38, 13509, Berlin, Germany",
      "address": "Berlin DC4, Wittestr. 38, 13509, Berlin",
      "city": "Berlin",
      "country": "Germany",
      "updated_at": "2026-04-19T15:04:43.557Z"
    },
    "prop_d76bef88304d10": {
      "lat": 52.5321922,
      "lng": 13.1874838,
      "source": "address_country_photon",
      "geocode_query": "Berlin DC6, Altonaer Straße 59, 13581, Berlin, Germany",
      "address": "Berlin DC6, Altonaer Straße 59, 13581, Berlin",
      "city": "Berlin",
      "country": "Germany",
      "updated_at": "2026-04-19T15:04:43.737Z"
    },
    "prop_de56f8d3be0281": {
      "lat": 51.6795774,
      "lng": 7.7958788,
      "source": "address_country_photon",
      "geocode_query": "Hamm DC2A, Hafenstraße 21, 59067, Hamm, Germany",
      "address": "Hamm DC2A, Hafenstraße 21, 59067, Hamm",
      "city": "Hamm",
      "country": "Germany",
      "updated_at": "2026-04-19T15:04:44.069Z"
    },
    "prop_089ecb04f1ec1d": {
      "lat": 49.3628019,
      "lng": 10.8647935,
      "source": "address_country_photon",
      "geocode_query": "Nuremberg DC8, Feuchtwanger Str. 7, 90574, Rosstal, Germany",
      "address": "Nuremberg DC8, Feuchtwanger Str. 7, 90574, Rosstal",
      "city": "Rosstal",
      "country": "Germany",
      "updated_at": "2026-04-19T15:04:44.379Z"
    },
    "prop_22acef16bf84f7": {
      "lat": 52.3564011,
      "lng": 9.8792173,
      "source": "address_country_photon",
      "geocode_query": "Hannover DC6, Hannoversche Straße 34, 31319, Sehnde, Germany",
      "address": "Hannover DC6, Hannoversche Straße 34, 31319, Sehnde",
      "city": "Sehnde",
      "country": "Germany",
      "updated_at": "2026-04-19T15:04:44.785Z"
    },
    "prop_b9b06e28d53c7f": {
      "lat": 48.411911,
      "lng": 10.8565332,
      "source": "address_country_photon",
      "geocode_query": "Augsburg DC3 extension, Freiburger Straße 7, 86156, Augsburg, Germany",
      "address": "Augsburg DC3 extension, Freiburger Straße 7, 86156, Augsburg",
      "city": "Augsburg",
      "country": "Germany",
      "updated_at": "2026-04-19T15:04:45.292Z"
    },
    "prop_3b722f8c4133b4": {
      "lat": 49.3628019,
      "lng": 10.8647935,
      "source": "address_country_photon",
      "geocode_query": "Nuremberg DC7, Feuchtwanger Str. 7, 90574, Rosstal, Germany",
      "address": "Nuremberg DC7, Feuchtwanger Str. 7, 90574, Rosstal",
      "city": "Rosstal",
      "country": "Germany",
      "updated_at": "2026-04-19T15:04:45.449Z"
    },
    "prop_d1866180192fdf": {
      "lat": 49.9106206,
      "lng": 7.9348331,
      "source": "address_country_photon",
      "geocode_query": "Grolsheim DC1, Willy-Brand-Allee 1, 55459, Grolsheim, Germany",
      "address": "Grolsheim DC1, Willy-Brand-Allee 1, 55459, Grolsheim",
      "city": "Grolsheim",
      "country": "Germany",
      "updated_at": "2026-04-19T15:04:45.783Z"
    },
    "prop_d70ead33cf5923": {
      "lat": 49.7706249,
      "lng": 8.499485,
      "source": "address_country_photon",
      "geocode_query": "Gernsheim DC1, Marie-Curie-Straße 1, 64579, Gernsheim, Germany",
      "address": "Gernsheim DC1, Marie-Curie-Straße 1, 64579, Gernsheim",
      "city": "Gernsheim",
      "country": "Germany",
      "updated_at": "2026-04-19T15:04:46.221Z"
    },
    "prop_e968a09202b1e6": {
      "lat": 50.0475739,
      "lng": 9.0472843,
      "source": "address_country_photon",
      "geocode_query": "Alzenau DC1, Industriegebiet Süd B30, 63755, Alzenau, Germany",
      "address": "Alzenau DC1, Industriegebiet Süd B30, 63755, Alzenau",
      "city": "Alzenau",
      "country": "Germany",
      "updated_at": "2026-04-19T15:04:46.526Z"
    },
    "prop_d753d39175aa8a": {
      "lat": 51.6128207,
      "lng": 7.7898448,
      "source": "address_country_photon",
      "geocode_query": "Bonen DC1, Siemensstraße 33, 59199, Bonen, Germany",
      "address": "Bonen DC1, Siemensstraße 33, 59199, Bonen",
      "city": "Bonen",
      "country": "Germany",
      "updated_at": "2026-04-19T15:04:46.747Z"
    },
    "prop_ac0b0eb1b67c19": {
      "lat": 51.5490669,
      "lng": 7.1521258,
      "source": "address_country_photon",
      "geocode_query": "Herne DC3, Am Westhafen 19, 44653, Herne, Germany",
      "address": "Herne DC3, Am Westhafen 19, 44653, Herne",
      "city": "Herne",
      "country": "Germany",
      "updated_at": "2026-04-19T15:04:47.246Z"
    },
    "prop_06385e85274989": {
      "lat": 48.411911,
      "lng": 10.8565332,
      "source": "address_country_photon",
      "geocode_query": "Augsburg DC3, Freiburger Straße 7, 86156, Augsburg, Germany",
      "address": "Augsburg DC3, Freiburger Straße 7, 86156, Augsburg",
      "city": "Augsburg",
      "country": "Germany",
      "updated_at": "2026-04-19T15:04:47.642Z"
    },
    "prop_8d60f8edcb4015": {
      "lat": 48.4119486,
      "lng": 10.8556016,
      "source": "address_country_photon",
      "geocode_query": "Augsburg DC1, Freiburger Straße 5, 86156, Augsburg, Germany",
      "address": "Augsburg DC1, Freiburger Straße 5, 86156, Augsburg",
      "city": "Augsburg",
      "country": "Germany",
      "updated_at": "2026-04-19T15:04:47.907Z"
    },
    "prop_e65ae61f1d7b37": {
      "lat": 49.9146242,
      "lng": 7.9371828,
      "source": "address_country_photon",
      "geocode_query": "Grolsheim DC2, Albert-Schweizer-Strasse, 55459, Grolsheim, Germany",
      "address": "Grolsheim DC2, Albert-Schweizer-Strasse, 55459, Grolsheim",
      "city": "Grolsheim",
      "country": "Germany",
      "updated_at": "2026-04-19T15:04:48.182Z"
    },
    "prop_79a4fbba7a713c": {
      "lat": 52.5173885,
      "lng": 13.3951309,
      "source": "name_city_country_photon",
      "geocode_query": "Berlin DC1, Berlin, Germany",
      "address": "Berlin DC1, Untertuerckheimer Straße 15-23, 12277, Berlin",
      "city": "Berlin",
      "country": "Germany",
      "updated_at": "2026-04-19T15:04:49.073Z"
    },
    "prop_0548e536c734ac": {
      "lat": 52.5617943,
      "lng": 13.4609463,
      "source": "address_country_photon",
      "geocode_query": "Berlin DC5, Industriebahn 23, 13088, Berlin, Germany",
      "address": "Berlin DC5, Industriebahn 23, 13088, Berlin",
      "city": "Berlin",
      "country": "Germany",
      "updated_at": "2026-04-19T15:04:49.767Z"
    },
    "prop_e7a937a34d74ad": {
      "lat": 52.5775102,
      "lng": 13.3024174,
      "source": "address_country_photon",
      "geocode_query": "Berlin DC3, Wittestraße 38, 13509, Berlin, Germany",
      "address": "Berlin DC3, Wittestraße 38, 13509, Berlin",
      "city": "Berlin",
      "country": "Germany",
      "updated_at": "2026-04-19T15:04:49.949Z"
    },
    "prop_0bb7a18b04f9f8": {
      "lat": 52.5375965,
      "lng": 13.1663015,
      "source": "address_country_photon",
      "geocode_query": "Berlin DC7, Staakener Str. 53-63, 13581, Berlin, Germany",
      "address": "Berlin DC7, Staakener Str. 53-63, 13581, Berlin",
      "city": "Berlin",
      "country": "Germany",
      "updated_at": "2026-04-19T15:04:50.317Z"
    },
    "prop_ee600b8dcabb19": {
      "lat": 50.8828248,
      "lng": 6.9194637,
      "source": "address_country_photon",
      "geocode_query": "Cologne DC1, Am Eifeltor 16, 50997, Cologne, Germany",
      "address": "Cologne DC1, Am Eifeltor 16, 50997, Cologne",
      "city": "Cologne",
      "country": "Germany",
      "updated_at": "2026-04-19T15:04:50.609Z"
    },
    "prop_a1ad5845cd3177": {
      "lat": 48.7851437,
      "lng": 11.7682144,
      "source": "address_country_photon",
      "geocode_query": "Neustadt DC1, Raffineriestraße 120, 93333, Neustadt, Germany",
      "address": "Neustadt DC1, Raffineriestraße 120, 93333, Neustadt",
      "city": "Neustadt",
      "country": "Germany",
      "updated_at": "2026-04-19T15:04:50.921Z"
    },
    "prop_cae3822f668a0b": {
      "lat": 50.8822285,
      "lng": 6.9186363,
      "source": "address_country_photon",
      "geocode_query": "Cologne DC2, Am Eifeltor 18, 50997, Cologne, Germany",
      "address": "Cologne DC2, Am Eifeltor 18, 50997, Cologne",
      "city": "Cologne",
      "country": "Germany",
      "updated_at": "2026-04-19T15:04:51.341Z"
    },
    "prop_4619b02fa5f0ff": {
      "lat": 50.0475739,
      "lng": 9.0472843,
      "source": "address_country_photon",
      "geocode_query": "Alzenau DC2, Industriegebiet Süd B40, 63755, Alzenau, Germany",
      "address": "Alzenau DC2, Industriegebiet Süd B40, 63755, Alzenau",
      "city": "Alzenau",
      "country": "Germany",
      "updated_at": "2026-04-19T15:04:51.779Z"
    },
    "prop_fca8f54f2bdfef": {
      "lat": 49.7706249,
      "lng": 8.499485,
      "source": "address_country_photon",
      "geocode_query": "Gernsheim DC1 Extension, Marie-Curie-Straße 1, 64579, Gernsheim, Germany",
      "address": "Gernsheim DC1 Extension, Marie-Curie-Straße 1, 64579, Gernsheim",
      "city": "Gernsheim",
      "country": "Germany",
      "updated_at": "2026-04-19T15:04:51.975Z"
    },
    "prop_cc15fccb7ea0c4": {
      "lat": 52.5429886,
      "lng": 13.5153409,
      "source": "address_country_photon",
      "geocode_query": "Berlin DC2, Plauener Straße 161, 13053, Berlin, Germany",
      "address": "Berlin DC2, Plauener Straße 161, 13053, Berlin",
      "city": "Berlin",
      "country": "Germany",
      "updated_at": "2026-04-19T15:04:52.365Z"
    },
    "prop_671829eea2437c": {
      "lat": 51.5637243,
      "lng": 7.515222,
      "source": "address_country_photon",
      "geocode_query": "Dortmund DC5, Gneisenauallee 20, 44141, Dortmund, Germany",
      "address": "Dortmund DC5, Gneisenauallee 20, 44141, Dortmund",
      "city": "Dortmund",
      "country": "Germany",
      "updated_at": "2026-04-19T15:04:52.713Z"
    },
    "prop_f37a4fefb0cd7f": {
      "lat": 52.5174559,
      "lng": 13.4165925,
      "source": "address_country_photon",
      "geocode_query": "VoltAir, Voltairestrasse 8-10, 10179, Berlin, Germany",
      "address": "VoltAir, Voltairestrasse 8-10, 10179, Berlin",
      "city": "Berlin",
      "country": "Germany",
      "updated_at": "2026-04-19T15:04:52.821Z"
    },
    "prop_5676ddd76a7555": {
      "lat": 47.3835674,
      "lng": 18.9640357,
      "source": "address_country_photon",
      "geocode_query": "Budapest-Harbor DC8, Campona u. 1., 1225, Budapest, Hungary",
      "address": "Budapest-Harbor DC8, Campona u. 1., 1225, Budapest",
      "city": "Budapest",
      "country": "Hungary",
      "updated_at": "2026-04-19T15:04:53.389Z"
    },
    "prop_2607bde3b6088f": {
      "lat": 47.3835674,
      "lng": 18.9640357,
      "source": "address_country_photon",
      "geocode_query": "Budapest-Harbor DC2, Campona u. 1., 1225, Budapest, Hungary",
      "address": "Budapest-Harbor DC2, Campona u. 1., 1225, Budapest",
      "city": "Budapest",
      "country": "Hungary",
      "updated_at": "2026-04-19T15:04:53.797Z"
    },
    "prop_46d3eb16bd9543": {
      "lat": 47.3835674,
      "lng": 18.9640357,
      "source": "address_country_photon",
      "geocode_query": "Budapest-Harbor DC4, Campona u. 1., 1225, Budapest, Hungary",
      "address": "Budapest-Harbor DC4, Campona u. 1., 1225, Budapest",
      "city": "Budapest",
      "country": "Hungary",
      "updated_at": "2026-04-19T15:04:53.997Z"
    },
    "prop_e73cb4ca5bdfe6": {
      "lat": 47.3835674,
      "lng": 18.9640357,
      "source": "address_country_photon",
      "geocode_query": "Budapest-Harbor DC7A, Campona u. 1., 1225, Budapest, Hungary",
      "address": "Budapest-Harbor DC7A, Campona u. 1., 1225, Budapest",
      "city": "Budapest",
      "country": "Hungary",
      "updated_at": "2026-04-19T15:04:54.413Z"
    },
    "prop_dce7a49d356825": {
      "lat": 47.3835674,
      "lng": 18.9640357,
      "source": "address_country_photon",
      "geocode_query": "Budapest-Harbor DC7B, Campona u. 1., 1225, Budapest, Hungary",
      "address": "Budapest-Harbor DC7B, Campona u. 1., 1225, Budapest",
      "city": "Budapest",
      "country": "Hungary",
      "updated_at": "2026-04-19T15:04:54.618Z"
    },
    "prop_7a0fb7138cef33": {
      "lat": 47.3835674,
      "lng": 18.9640357,
      "source": "address_country_photon",
      "geocode_query": "Budapest-Harbor DC11, Campona u. 1., 1225, Budapest, Hungary",
      "address": "Budapest-Harbor DC11, Campona u. 1., 1225, Budapest",
      "city": "Budapest",
      "country": "Hungary",
      "updated_at": "2026-04-19T15:04:54.948Z"
    },
    "prop_0fa7d75c63c567": {
      "lat": 47.3835674,
      "lng": 18.9640357,
      "source": "address_country_photon",
      "geocode_query": "Budapest-Harbor DC12, Campona u. 1., 1225, Budapest, Hungary",
      "address": "Budapest-Harbor DC12, Campona u. 1., 1225, Budapest",
      "city": "Budapest",
      "country": "Hungary",
      "updated_at": "2026-04-19T15:04:55.640Z"
    },
    "prop_c367cc5ad3fe85": {
      "lat": 47.3835674,
      "lng": 18.9640357,
      "source": "address_country_photon",
      "geocode_query": "Budapest-Harbor DC6, Campona u. 1., 1225, Budapest, Hungary",
      "address": "Budapest-Harbor DC6, Campona u. 1., 1225, Budapest",
      "city": "Budapest",
      "country": "Hungary",
      "updated_at": "2026-04-19T15:04:55.947Z"
    },
    "prop_18a98c5e5cd71d": {
      "lat": 47.3549926,
      "lng": 19.1914166,
      "source": "name_city_country_photon",
      "geocode_query": "Budapest-Gyal DC5, Budapest, Hungary",
      "address": "Budapest-Gyal DC5, hrsz 7100 Gyal, 2360, Budapest",
      "city": "Budapest",
      "country": "Hungary",
      "updated_at": "2026-04-19T15:04:56.742Z"
    },
    "prop_9303014e6b5df9": {
      "lat": 47.3835674,
      "lng": 18.9640357,
      "source": "address_country_photon",
      "geocode_query": "Budapest-Harbor DC9, Campona u. 1., 1225, Budapest, Hungary",
      "address": "Budapest-Harbor DC9, Campona u. 1., 1225, Budapest",
      "city": "Budapest",
      "country": "Hungary",
      "updated_at": "2026-04-19T15:04:57.381Z"
    },
    "prop_8d9297a7951bbb": {
      "lat": 47.3835674,
      "lng": 18.9640357,
      "source": "address_country_photon",
      "geocode_query": "Budapest-Harbor DC10, Campona u. 1., 1225, Budapest, Hungary",
      "address": "Budapest-Harbor DC10, Campona u. 1., 1225, Budapest",
      "city": "Budapest",
      "country": "Hungary",
      "updated_at": "2026-04-19T15:04:57.550Z"
    },
    "prop_e14db654a3cc0c": {
      "lat": 47.3835674,
      "lng": 18.9640357,
      "source": "address_country_photon",
      "geocode_query": "Budapest-Harbor DC5, Campona u. 1., 1225, Budapest, Hungary",
      "address": "Budapest-Harbor DC5, Campona u. 1., 1225, Budapest",
      "city": "Budapest",
      "country": "Hungary",
      "updated_at": "2026-04-19T15:04:57.893Z"
    },
    "prop_46898b6e23b288": {
      "lat": 47.3835674,
      "lng": 18.9640357,
      "source": "address_country_photon",
      "geocode_query": "Budapest-Harbor DC3, Campona u. 1., 1225, Budapest, Hungary",
      "address": "Budapest-Harbor DC3, Campona u. 1., 1225, Budapest",
      "city": "Budapest",
      "country": "Hungary",
      "updated_at": "2026-04-19T15:04:58.405Z"
    },
    "prop_e7625c921c9a01": {
      "lat": 47.3835674,
      "lng": 18.9640357,
      "source": "address_country_photon",
      "geocode_query": "Budapest-Harbor DC1, Campona u. 1., 1225, Budapest, Hungary",
      "address": "Budapest-Harbor DC1, Campona u. 1., 1225, Budapest",
      "city": "Budapest",
      "country": "Hungary",
      "updated_at": "2026-04-19T15:04:58.557Z"
    },
    "prop_09d8cafd14b703": {
      "lat": 47.3549926,
      "lng": 19.1914166,
      "source": "name_city_country_photon",
      "geocode_query": "Budapest-Gyal DC1, Budapest, Hungary",
      "address": "Budapest-Gyal DC1, hrsz 7100 Gyal, 2360, Budapest",
      "city": "Budapest",
      "country": "Hungary",
      "updated_at": "2026-04-19T15:04:59.521Z"
    },
    "prop_e8465a47108d98": {
      "lat": 47.3549926,
      "lng": 19.1914166,
      "source": "name_city_country_photon",
      "geocode_query": "Budapest-Gyal DC2A, Budapest, Hungary",
      "address": "Budapest-Gyal DC2A, hrsz 7100 Gyal, 2360, Budapest",
      "city": "Budapest",
      "country": "Hungary",
      "updated_at": "2026-04-19T15:05:00.559Z"
    },
    "prop_2b2a8d92301630": {
      "lat": 47.3549926,
      "lng": 19.1914166,
      "source": "name_city_country_photon",
      "geocode_query": "Budapest-Gyal DC2B, Budapest, Hungary",
      "address": "Budapest-Gyal DC2B, hrsz 7100 Gyal, 2360, Budapest",
      "city": "Budapest",
      "country": "Hungary",
      "updated_at": "2026-04-19T15:05:01.505Z"
    },
    "prop_da7b9ded5b6f41": {
      "lat": 20,
      "lng": 0,
      "source": "country_center_fallback",
      "geocode_query": null,
      "address": "Blackstone Americas Logistics L.P.",
      "city": "Blackstone Americas Logistics L.P.",
      "country": "International fund",
      "updated_at": "2026-04-19T15:05:02.296Z"
    },
    "prop_19cbec75bda349": {
      "lat": 45.2613104,
      "lng": 9.4916781,
      "source": "name_city_country_photon",
      "geocode_query": "Lodi DC5, Lodi, Italy",
      "address": "Lodi DC5, Strada Statale 234 nr. 17-19 Somaglia, 26867, Lodi",
      "city": "Lodi",
      "country": "Italy",
      "updated_at": "2026-04-19T15:05:03.159Z"
    },
    "prop_055e0d66e6f1fd": {
      "lat": 45.4625532,
      "lng": 8.7207768,
      "source": "name_city_country_photon",
      "geocode_query": "Romentino DC1, Romentino, Italy",
      "address": "Romentino DC1, Tangenziale Nord Ticino nr 4, 28068, Romentino",
      "city": "Romentino",
      "country": "Italy",
      "updated_at": "2026-04-19T15:05:04.166Z"
    },
    "prop_088a68ef45e093": {
      "lat": 45.2613104,
      "lng": 9.4916781,
      "source": "name_city_country_photon",
      "geocode_query": "Lodi DC8, Lodi, Italy",
      "address": "Lodi DC8, Somaglia & Casalpusterlengo Municipalities, 26841, Lodi",
      "city": "Lodi",
      "country": "Italy",
      "updated_at": "2026-04-19T15:05:05.163Z"
    },
    "prop_be52815df202cf": {
      "lat": 41.9125488,
      "lng": 12.6218186,
      "source": "name_city_country_photon",
      "geocode_query": "Rome La Rustica DC6 (Office), Rome, Italy",
      "address": "Rome La Rustica DC6 (Office), Via Olsvaldo Licini, 00155, Rome",
      "city": "Rome",
      "country": "Italy",
      "updated_at": "2026-04-19T15:05:06.392Z"
    },
    "prop_6058e913f2b0b5": {
      "lat": 41.9125488,
      "lng": 12.6218186,
      "source": "name_city_country_photon",
      "geocode_query": "Rome La Rustica DC5, Rome, Italy",
      "address": "Rome La Rustica DC5, Via Olsvaldo Licini, 00155, Rome",
      "city": "Rome",
      "country": "Italy",
      "updated_at": "2026-04-19T15:05:07.212Z"
    },
    "prop_971186ed3bf60a": {
      "lat": 41.9125488,
      "lng": 12.6218186,
      "source": "name_city_country_photon",
      "geocode_query": "Rome La Rustica DC4, Rome, Italy",
      "address": "Rome La Rustica DC4, Via Olsvaldo Licini, 00155, Rome",
      "city": "Rome",
      "country": "Italy",
      "updated_at": "2026-04-19T15:05:08.235Z"
    },
    "prop_712a38c33d3bd4": {
      "lat": 41.9125488,
      "lng": 12.6218186,
      "source": "name_city_country_photon",
      "geocode_query": "Rome La Rustica DC3, Rome, Italy",
      "address": "Rome La Rustica DC3, Via Olsvaldo Licini, 00155, Rome",
      "city": "Rome",
      "country": "Italy",
      "updated_at": "2026-04-19T15:05:09.151Z"
    },
    "prop_3b83a583b0dbeb": {
      "lat": 41.9125488,
      "lng": 12.6218186,
      "source": "name_city_country_photon",
      "geocode_query": "Rome La Rustica DC1, Rome, Italy",
      "address": "Rome La Rustica DC1, Via Olsvaldo Licini, 00155, Rome",
      "city": "Rome",
      "country": "Italy",
      "updated_at": "2026-04-19T15:05:10.283Z"
    },
    "prop_0a018e7d4d9d0b": {
      "lat": 41.9125488,
      "lng": 12.6218186,
      "source": "name_city_country_photon",
      "geocode_query": "Rome La Rustica DC2, Rome, Italy",
      "address": "Rome La Rustica DC2, Via Olsvaldo Licini, 00155, Rome",
      "city": "Rome",
      "country": "Italy",
      "updated_at": "2026-04-19T15:05:11.148Z"
    },
    "prop_202c55f114e650": {
      "lat": 45.0236775,
      "lng": 9.7571457,
      "source": "address_country_photon",
      "geocode_query": "Piacenza DC6, Via Francesco Maria Bazzani 63, 29100, Piacenza, Italy",
      "address": "Piacenza DC6, Via Francesco Maria Bazzani 63, 29100, Piacenza",
      "city": "Piacenza",
      "country": "Italy",
      "updated_at": "2026-04-19T15:05:11.615Z"
    },
    "prop_9d60bada95cd37": {
      "lat": 45.2613104,
      "lng": 9.4916781,
      "source": "name_city_country_photon",
      "geocode_query": "Lodi DC4, Lodi, Italy",
      "address": "Lodi DC4, Strada Statale 234 nr. 17-19 Somaglia, 26867, Lodi",
      "city": "Lodi",
      "country": "Italy",
      "updated_at": "2026-04-19T15:05:12.538Z"
    },
    "prop_ea9d66545061b1": {
      "lat": 44.9152304,
      "lng": 9.7199274,
      "source": "name_city_country_photon",
      "geocode_query": "Piacenza DC7, Piacenza, Italy",
      "address": "Piacenza DC7, Via Francesco Maria Bazzani, 65/65A/65B, 29100, Piacenza",
      "city": "Piacenza",
      "country": "Italy",
      "updated_at": "2026-04-19T15:05:13.471Z"
    },
    "prop_1af65c22a7a407": {
      "lat": 45.4625532,
      "lng": 8.7207768,
      "source": "name_city_country_photon",
      "geocode_query": "Romentino DC3, Romentino, Italy",
      "address": "Romentino DC3, Tangenziale Nord Ticino nr 4, 28068, Romentino",
      "city": "Romentino",
      "country": "Italy",
      "updated_at": "2026-04-19T15:05:14.704Z"
    },
    "prop_0d36fe8a361746": {
      "lat": 45.4625532,
      "lng": 8.7207768,
      "source": "name_city_country_photon",
      "geocode_query": "Romentino DC4, Romentino, Italy",
      "address": "Romentino DC4, Tangenziale Nord Ticino nr 4, 28068, Romentino",
      "city": "Romentino",
      "country": "Italy",
      "updated_at": "2026-04-19T15:05:15.498Z"
    },
    "prop_a9ee751cda983a": {
      "lat": 44.9152304,
      "lng": 9.7199274,
      "source": "name_city_country_photon",
      "geocode_query": "Piacenza DC2, Piacenza, Italy",
      "address": "Piacenza DC2, Via Carlo Strinati 19/21 Localita' Le Mose, 29100, Piacenza",
      "city": "Piacenza",
      "country": "Italy",
      "updated_at": "2026-04-19T15:05:16.554Z"
    },
    "prop_4b44871dd821ef": {
      "lat": 44.9152304,
      "lng": 9.7199274,
      "source": "name_city_country_photon",
      "geocode_query": "Piacenza DC3A, Piacenza, Italy",
      "address": "Piacenza DC3A, Via Carlo Strinati, 27/29 Localita' Le Mose, 29100, Piacenza",
      "city": "Piacenza",
      "country": "Italy",
      "updated_at": "2026-04-19T15:05:17.507Z"
    },
    "prop_497fbec750bf5d": {
      "lat": 45.4625532,
      "lng": 8.7207768,
      "source": "name_city_country_photon",
      "geocode_query": "Romentino DC2, Romentino, Italy",
      "address": "Romentino DC2, Tangenziale Nord Ticino nr 4, 28068, Romentino",
      "city": "Romentino",
      "country": "Italy",
      "updated_at": "2026-04-19T15:05:18.678Z"
    },
    "prop_fd8dd3f9045abc": {
      "lat": 45.2613104,
      "lng": 9.4916781,
      "source": "name_city_country_photon",
      "geocode_query": "Lodi DC3, Lodi, Italy",
      "address": "Lodi DC3, Strada Statale 234 nr. 17-19 Somaglia, 26867, Lodi",
      "city": "Lodi",
      "country": "Italy",
      "updated_at": "2026-04-19T15:05:19.466Z"
    },
    "prop_0dfe7a07af0911": {
      "lat": 44.6207768,
      "lng": 11.3830553,
      "source": "address_country_photon",
      "geocode_query": "Bologna Interporto DC1, Bologna Interporto Edificio 9.3 Bentivoglio, 40010, Bologna, Italy",
      "address": "Bologna Interporto DC1, Bologna Interporto Edificio 9.3 Bentivoglio, 40010, Bologna",
      "city": "Bologna",
      "country": "Italy",
      "updated_at": "2026-04-19T15:05:20.114Z"
    },
    "prop_f25c10419a0fd6": {
      "lat": 44.9152304,
      "lng": 9.7199274,
      "source": "name_city_country_photon",
      "geocode_query": "Piacenza DC1, Piacenza, Italy",
      "address": "Piacenza DC1, Via Carlo Strinati, 15/17 Localita' Le Mose, 29100, Piacenza",
      "city": "Piacenza",
      "country": "Italy",
      "updated_at": "2026-04-19T15:05:20.928Z"
    },
    "prop_8563c809395f54": {
      "lat": 45.2613104,
      "lng": 9.4916781,
      "source": "name_city_country_photon",
      "geocode_query": "Lodi DC2, Lodi, Italy",
      "address": "Lodi DC2, Strada Statale 234 nr. 17-19 Somaglia, 26867, Lodi",
      "city": "Lodi",
      "country": "Italy",
      "updated_at": "2026-04-19T15:05:21.891Z"
    },
    "prop_7c4dcc1119fb4e": {
      "lat": 44.9152304,
      "lng": 9.7199274,
      "source": "name_city_country_photon",
      "geocode_query": "Piacenza DC5, Piacenza, Italy",
      "address": "Piacenza DC5, Via Francesco Maria Bazzani 61, 29122, Piacenza",
      "city": "Piacenza",
      "country": "Italy",
      "updated_at": "2026-04-19T15:05:23.004Z"
    },
    "prop_c2f43d7000200f": {
      "lat": 45.1768345,
      "lng": 9.6616888,
      "source": "address_country_photon",
      "geocode_query": "Lodi DC7, Strada Statale 234 Casalpusterlengo, 26841, Lodi, Italy",
      "address": "Lodi DC7, Strada Statale 234 Casalpusterlengo, 26841, Lodi",
      "city": "Lodi",
      "country": "Italy",
      "updated_at": "2026-04-19T15:05:23.420Z"
    },
    "prop_46d2f60b5bd9ba": {
      "lat": 45.1514048,
      "lng": 9.6471189,
      "source": "city_country_photon",
      "geocode_query": "Somaglia, Italy",
      "address": "Lodi DC6 extension, Strada Statale 234, nr 1-3, Somaglia, 26867, Somaglia",
      "city": "Somaglia",
      "country": "Italy",
      "updated_at": "2026-04-19T15:05:24.701Z"
    },
    "prop_b48b1c962fff51": {
      "lat": 44.9152304,
      "lng": 9.7199274,
      "source": "name_city_country_photon",
      "geocode_query": "Piacenza DC3B, Piacenza, Italy",
      "address": "Piacenza DC3B, Via Carlo Strinati, 23/25 Localita' Le Mose, 29100, Piacenza",
      "city": "Piacenza",
      "country": "Italy",
      "updated_at": "2026-04-19T15:05:25.850Z"
    },
    "prop_0113a7c01c7685": {
      "lat": 45.2613104,
      "lng": 9.4916781,
      "source": "name_city_country_photon",
      "geocode_query": "Lodi DC6, Lodi, Italy",
      "address": "Lodi DC6, Strada Statale 234 nr. 1-3 Somaglia, 26867, Lodi",
      "city": "Lodi",
      "country": "Italy",
      "updated_at": "2026-04-19T15:05:26.872Z"
    },
    "prop_4c0a569a5d4dcd": {
      "lat": 45.2613104,
      "lng": 9.4916781,
      "source": "name_city_country_photon",
      "geocode_query": "Lodi DC1, Lodi, Italy",
      "address": "Lodi DC1, Strada Statale 234 nr. 17-19 Somaglia, 26867, Lodi",
      "city": "Lodi",
      "country": "Italy",
      "updated_at": "2026-04-19T15:05:27.794Z"
    },
    "prop_c6f5d06ac9a2a2": {
      "lat": 35.6867443,
      "lng": 139.7625218,
      "source": "address_country_photon",
      "geocode_query": "Otemachi Park Building, 1-1-1 Otemachi, 100-0004, Tokyo, Japan",
      "address": "Otemachi Park Building, 1-1-1 Otemachi, 100-0004, Tokyo",
      "city": "Tokyo",
      "country": "Japan",
      "updated_at": "2026-04-19T15:05:28.101Z"
    },
    "prop_a1f7ca21b2637f": {
      "lat": 35.670408,
      "lng": 139.7043642,
      "source": "address_country_photon",
      "geocode_query": "Ice Cube, 1-8-10 Jingumae, Shibuya, 150-0001, Tokyo, Japan",
      "address": "Ice Cube, 1-8-10 Jingumae, Shibuya, 150-0001, Tokyo",
      "city": "Tokyo",
      "country": "Japan",
      "updated_at": "2026-04-19T15:05:28.614Z"
    },
    "prop_0171e9b09313a3": {
      "lat": 35.6663659,
      "lng": 139.7042337,
      "source": "address_country_photon",
      "geocode_query": "Iceberg, 6-12-18 Jingumae, 150-0001, Tokyo, Japan",
      "address": "Iceberg, 6-12-18 Jingumae, 150-0001, Tokyo",
      "city": "Tokyo",
      "country": "Japan",
      "updated_at": "2026-04-19T15:05:28.745Z"
    },
    "prop_9afbddc400ce2f": {
      "lat": 35.6622971,
      "lng": 139.7118658,
      "source": "address_country_photon",
      "geocode_query": "The JOA, 5-3-2 Minami Aoyama, 107-0062, Tokyo, Japan",
      "address": "The JOA, 5-3-2 Minami Aoyama, 107-0062, Tokyo",
      "city": "Tokyo",
      "country": "Japan",
      "updated_at": "2026-04-19T15:05:29.230Z"
    },
    "prop_14256c2491c98b": {
      "lat": 35.661366,
      "lng": 139.714533,
      "source": "address_country_photon",
      "geocode_query": "Cinnamon, 5-3-27 Minami Aoyama, 107-0062, Tokyo, Japan",
      "address": "Cinnamon, 5-3-27 Minami Aoyama, 107-0062, Tokyo",
      "city": "Tokyo",
      "country": "Japan",
      "updated_at": "2026-04-19T15:05:29.408Z"
    },
    "prop_bbeb387f9438bb": {
      "lat": 35.6768601,
      "lng": 139.7638947,
      "source": "name_city_country_photon",
      "geocode_query": "V28, Tokyo, Japan",
      "address": "V28, 6-31-17 Jingumae, Shibuya, 150-0001, Tokyo",
      "city": "Tokyo",
      "country": "Japan",
      "updated_at": "2026-04-19T15:05:30.475Z"
    },
    "prop_a67e2b21131952": {
      "lat": 51.6038196,
      "lng": 5.0091889,
      "source": "address_country_photon",
      "geocode_query": "Tilburg DC6, Dongenseweg 200, 5047 RH, Tilburg, Netherlands",
      "address": "Tilburg DC6, Dongenseweg 200, 5047 RH, Tilburg",
      "city": "Tilburg",
      "country": "Netherlands",
      "updated_at": "2026-04-19T15:05:30.969Z"
    },
    "prop_5ab8321d29f23d": {
      "lat": 51.3955408,
      "lng": 6.0961058,
      "source": "address_country_photon",
      "geocode_query": "Venlo DC4, Columbusweg 33a, 5928 LA, Venlo, Netherlands",
      "address": "Venlo DC4, Columbusweg 33a, 5928 LA, Venlo",
      "city": "Venlo",
      "country": "Netherlands",
      "updated_at": "2026-04-19T15:05:31.100Z"
    },
    "prop_2dcf2d89e0615f": {
      "lat": 51.473685,
      "lng": 5.4129729,
      "source": "address_country_photon",
      "geocode_query": "Eindhoven DC1, De Schakel 40-50, 5651 GH, Eindhoven, Netherlands",
      "address": "Eindhoven DC1, De Schakel 40-50, 5651 GH, Eindhoven",
      "city": "Eindhoven",
      "country": "Netherlands",
      "updated_at": "2026-04-19T15:05:31.506Z"
    },
    "prop_7933417cc164a8": {
      "lat": 51.6219733,
      "lng": 5.515768,
      "source": "address_country_photon",
      "geocode_query": "Veghel DC2, De Amert 605, 5462 GH, Veghel, Netherlands",
      "address": "Veghel DC2, De Amert 605, 5462 GH, Veghel",
      "city": "Veghel",
      "country": "Netherlands",
      "updated_at": "2026-04-19T15:05:31.890Z"
    },
    "prop_7b801770fd9b05": {
      "lat": 52.0321298,
      "lng": 4.5481334,
      "source": "address_country_photon",
      "geocode_query": "Bleiswijk DC2, Hollandweg 4, 2665, Bleiswijk, Netherlands",
      "address": "Bleiswijk DC2, Hollandweg 4, 2665, Bleiswijk",
      "city": "Bleiswijk",
      "country": "Netherlands",
      "updated_at": "2026-04-19T15:05:32.133Z"
    },
    "prop_1f4829c9e24618": {
      "lat": 51.8868569,
      "lng": 4.4044611,
      "source": "name_city_country_photon",
      "geocode_query": "Eemhaven DC8, Eemhaven, Netherlands",
      "address": "Eemhaven DC8, Seattleweg 1-5, 3195 ND, Eemhaven",
      "city": "Eemhaven",
      "country": "Netherlands",
      "updated_at": "2026-04-19T15:05:33.221Z"
    },
    "prop_a19b326e949208": {
      "lat": 51.60484,
      "lng": 4.7571008,
      "source": "address_country_photon",
      "geocode_query": "Breda DC2, Hekven 6 A-D, 4824 AE, Breda, Netherlands",
      "address": "Breda DC2, Hekven 6 A-D, 4824 AE, Breda",
      "city": "Breda",
      "country": "Netherlands",
      "updated_at": "2026-04-19T15:05:33.431Z"
    },
    "prop_3ff39b9c3cf9c7": {
      "lat": 51.062688,
      "lng": 5.8167112,
      "source": "address_country_photon",
      "geocode_query": "Born DC1, Holtum Noordweg 5 + 11, 6121 RE, Born, Netherlands",
      "address": "Born DC1, Holtum Noordweg 5 + 11, 6121 RE, Born",
      "city": "Born",
      "country": "Netherlands",
      "updated_at": "2026-04-19T15:05:33.863Z"
    },
    "prop_7c8b946f5d2038": {
      "lat": 51.4016962,
      "lng": 6.0912403,
      "source": "address_country_photon",
      "geocode_query": "Venlo DC2A, Tasmanweg 9-11, 5928 LH, Venlo, Netherlands",
      "address": "Venlo DC2A, Tasmanweg 9-11, 5928 LH, Venlo",
      "city": "Venlo",
      "country": "Netherlands",
      "updated_at": "2026-04-19T15:05:34.246Z"
    },
    "prop_dee538f2546f0a": {
      "lat": 51.6219733,
      "lng": 5.515768,
      "source": "address_country_photon",
      "geocode_query": "Veghel DC1, De Amert 603, 5462 GH, Veghel, Netherlands",
      "address": "Veghel DC1, De Amert 603, 5462 GH, Veghel",
      "city": "Veghel",
      "country": "Netherlands",
      "updated_at": "2026-04-19T15:05:34.496Z"
    },
    "prop_967b3ad6f6d0d1": {
      "lat": 51.062688,
      "lng": 5.8167112,
      "source": "address_country_photon",
      "geocode_query": "Born DC2, Holtum Noordweg 5 + 11, 6121 RE, Born, Netherlands",
      "address": "Born DC2, Holtum Noordweg 5 + 11, 6121 RE, Born",
      "city": "Born",
      "country": "Netherlands",
      "updated_at": "2026-04-19T15:05:34.867Z"
    },
    "prop_b5aa21843484b6": {
      "lat": 51.6009633,
      "lng": 5.0022723,
      "source": "address_country_photon",
      "geocode_query": "Tilburg DC1B, Theseusstraat 21-29, 5047 RH, Tilburg, Netherlands",
      "address": "Tilburg DC1B, Theseusstraat 21-29, 5047 RH, Tilburg",
      "city": "Tilburg",
      "country": "Netherlands",
      "updated_at": "2026-04-19T15:05:35.158Z"
    },
    "prop_4f8f48c473b054": {
      "lat": 52.015311,
      "lng": 4.5558271,
      "source": "name_city_country_photon",
      "geocode_query": "Bleiswijk DC1, Bleiswijk, Netherlands",
      "address": "Bleiswijk DC1, Brandpuntlaan 3 - 5, 2665 NN, Bleiswijk",
      "city": "Bleiswijk",
      "country": "Netherlands",
      "updated_at": "2026-04-19T15:05:36.080Z"
    },
    "prop_8ce7dc7ddf9df2": {
      "lat": 51.5996685,
      "lng": 5.0041779,
      "source": "address_country_photon",
      "geocode_query": "Tilburg DC1A, Theseusstraat 11-19, 5047 RH, Tilburg, Netherlands",
      "address": "Tilburg DC1A, Theseusstraat 11-19, 5047 RH, Tilburg",
      "city": "Tilburg",
      "country": "Netherlands",
      "updated_at": "2026-04-19T15:05:36.498Z"
    },
    "prop_e97599e55a0728": {
      "lat": 51.5331484,
      "lng": 4.4561276,
      "source": "name_city_country_photon",
      "geocode_query": "Roosendaal DC1, Roosendaal, Netherlands",
      "address": "Roosendaal DC1, Den Brak 2 & Rietschotten 2, 4751 XN, Roosendaal",
      "city": "Roosendaal",
      "country": "Netherlands",
      "updated_at": "2026-04-19T15:05:37.505Z"
    },
    "prop_3d48de993457c8": {
      "lat": 51.4010041,
      "lng": 6.0744806,
      "source": "address_country_photon",
      "geocode_query": "Venlo DC5, Amundsendweg 2, 5928 LA, Venlo, Netherlands",
      "address": "Venlo DC5, Amundsendweg 2, 5928 LA, Venlo",
      "city": "Venlo",
      "country": "Netherlands",
      "updated_at": "2026-04-19T15:05:37.830Z"
    },
    "prop_f2600ad4a19d15": {
      "lat": 51.8868569,
      "lng": 4.4044611,
      "source": "name_city_country_photon",
      "geocode_query": "Eemhaven DC9, Eemhaven, Netherlands",
      "address": "Eemhaven DC9, Seattleweg 1-5, 3195 ND, Eemhaven",
      "city": "Eemhaven",
      "country": "Netherlands",
      "updated_at": "2026-04-19T15:05:38.806Z"
    },
    "prop_39d084bf62ce05": {
      "lat": 51.4037425,
      "lng": 6.0870606,
      "source": "address_country_photon",
      "geocode_query": "Venlo DC2B, Stanleyweg 8-10, 5928 LR, Venlo, Netherlands",
      "address": "Venlo DC2B, Stanleyweg 8-10, 5928 LR, Venlo",
      "city": "Venlo",
      "country": "Netherlands",
      "updated_at": "2026-04-19T15:05:39.129Z"
    },
    "prop_41edc51c571c87": {
      "lat": 51.3998281,
      "lng": 6.077526,
      "source": "address_country_photon",
      "geocode_query": "Venlo DC1, Dirk Hartogweg 14, 5928 LV, Venlo, Netherlands",
      "address": "Venlo DC1, Dirk Hartogweg 14, 5928 LV, Venlo",
      "city": "Venlo",
      "country": "Netherlands",
      "updated_at": "2026-04-19T15:05:39.393Z"
    },
    "prop_3087b61c44b201": {
      "lat": 51.062688,
      "lng": 5.8167112,
      "source": "address_country_photon",
      "geocode_query": "Born DC1B, Holtum Noordweg 5 + 11, 6121 RE, Born, Netherlands",
      "address": "Born DC1B, Holtum Noordweg 5 + 11, 6121 RE, Born",
      "city": "Born",
      "country": "Netherlands",
      "updated_at": "2026-04-19T15:05:39.884Z"
    },
    "prop_aac3129120c2a1": {
      "lat": 51.60484,
      "lng": 4.7571008,
      "source": "address_country_photon",
      "geocode_query": "Breda DC1, Hekven 6 A-D, 4824 AE, Breda, Netherlands",
      "address": "Breda DC1, Hekven 6 A-D, 4824 AE, Breda",
      "city": "Breda",
      "country": "Netherlands",
      "updated_at": "2026-04-19T15:05:40.202Z"
    },
    "prop_6b6b096150fdc0": {
      "lat": 51.4102961,
      "lng": 19.6304262,
      "source": "address_country_photon",
      "geocode_query": "Piotrkow DC3C, Al. Generała Sikorskiego 79, 97-300, Piotrków Trybunalski, Poland",
      "address": "Piotrkow DC3C, Al. Generała Sikorskiego 79, 97-300, Piotrków Trybunalski",
      "city": "Piotrków Trybunalski",
      "country": "Poland",
      "updated_at": "2026-04-19T15:05:40.569Z"
    },
    "prop_d82107ef6110ec": {
      "lat": 52.4581657,
      "lng": 16.6905379,
      "source": "address_country_photon",
      "geocode_query": "Poznan DC1A, ul. Poznanska 16A, 62-080, Poznan, Poland",
      "address": "Poznan DC1A, ul. Poznanska 16A, 62-080, Poznan",
      "city": "Poznan",
      "country": "Poland",
      "updated_at": "2026-04-19T15:05:40.825Z"
    },
    "prop_9f3a90ec70b179": {
      "lat": 52.2022595,
      "lng": 20.6411081,
      "source": "address_country_photon",
      "geocode_query": "Blonie DC4, Kopytow 44d, 05-870, Błonie, Poland",
      "address": "Blonie DC4, Kopytow 44d, 05-870, Błonie",
      "city": "Błonie",
      "country": "Poland",
      "updated_at": "2026-04-19T15:05:41.055Z"
    },
    "prop_55f81393d73436": {
      "lat": 51.0410855,
      "lng": 16.93247,
      "source": "address_country_photon",
      "geocode_query": "Wroclaw V DC10, ProLogis Park Wroclaw V, Ryszarda Chomicza, 55-080, Nowa Wieś Wrocławska, Poland",
      "address": "Wroclaw V DC10, ProLogis Park Wroclaw V, Ryszarda Chomicza, 55-080, Nowa Wieś Wrocławska",
      "city": "Nowa Wieś Wrocławska",
      "country": "Poland",
      "updated_at": "2026-04-19T15:05:41.518Z"
    },
    "prop_d22364e682b475": {
      "lat": 51.0410855,
      "lng": 16.93247,
      "source": "address_country_photon",
      "geocode_query": "Wroclaw V DC5, ProLogis Park Wroclaw V, Ryszarda Chomicza, 55-080, Wrocław, Poland",
      "address": "Wroclaw V DC5, ProLogis Park Wroclaw V, Ryszarda Chomicza, 55-080, Wrocław",
      "city": "Wrocław",
      "country": "Poland",
      "updated_at": "2026-04-19T15:05:41.907Z"
    },
    "prop_ff59a812276fbb": {
      "lat": 51.0410855,
      "lng": 16.93247,
      "source": "address_country_photon",
      "geocode_query": "Wroclaw V DC8A, ProLogis Park Wroclaw V, Ryszarda Chomicza, 55-080, Wrocław, Poland",
      "address": "Wroclaw V DC8A, ProLogis Park Wroclaw V, Ryszarda Chomicza, 55-080, Wrocław",
      "city": "Wrocław",
      "country": "Poland",
      "updated_at": "2026-04-19T15:05:42.240Z"
    },
    "prop_1708e832933d72": {
      "lat": 51.4102961,
      "lng": 19.6304262,
      "source": "address_country_photon",
      "geocode_query": "Piotrkow DC3A, Al. Generała Sikorskiego 79, 97-300, Piotrków Trybunalski, Poland",
      "address": "Piotrkow DC3A, Al. Generała Sikorskiego 79, 97-300, Piotrków Trybunalski",
      "city": "Piotrków Trybunalski",
      "country": "Poland",
      "updated_at": "2026-04-19T15:05:42.542Z"
    },
    "prop_2328b9bf2b8c0a": {
      "lat": 52.4478166,
      "lng": 16.7318584,
      "source": "address_country_photon",
      "geocode_query": "Poznan DC1B, ul. Poznańska 16C, 62-080, Poznan, Poland",
      "address": "Poznan DC1B, ul. Poznańska 16C, 62-080, Poznan",
      "city": "Poznan",
      "country": "Poland",
      "updated_at": "2026-04-19T15:05:42.949Z"
    },
    "prop_2e9cb06894b2f3": {
      "lat": 51.0848743,
      "lng": 17.0399837,
      "source": "name_city_country_photon",
      "geocode_query": "Wroclaw III DC2A, Wrocław, Poland",
      "address": "Wroclaw III DC2A, ul.Graniczna 8b, 54-610, Wrocław",
      "city": "Wrocław",
      "country": "Poland",
      "updated_at": "2026-04-19T15:05:43.781Z"
    },
    "prop_85b0d909898ee5": {
      "lat": 52.4470451,
      "lng": 16.7335883,
      "source": "address_country_photon",
      "geocode_query": "Poznan DC2, ul. Poznańska 16D, 62-080, Poznan, Poland",
      "address": "Poznan DC2, ul. Poznańska 16D, 62-080, Poznan",
      "city": "Poznan",
      "country": "Poland",
      "updated_at": "2026-04-19T15:05:44.144Z"
    },
    "prop_a6aec589c8b05c": {
      "lat": 52.44902,
      "lng": 16.73038,
      "source": "address_country_photon",
      "geocode_query": "Poznan DC3, ul. Poznańska 16B, 62-080, Poznan, Poland",
      "address": "Poznan DC3, ul. Poznańska 16B, 62-080, Poznan",
      "city": "Poznan",
      "country": "Poland",
      "updated_at": "2026-04-19T15:05:44.486Z"
    },
    "prop_30e31c23a4d629": {
      "lat": 51.0410855,
      "lng": 16.93247,
      "source": "address_country_photon",
      "geocode_query": "Wroclaw V DC7A, ProLogis Park Wroclaw V, Ryszarda Chomicza, 55-080, Wrocław, Poland",
      "address": "Wroclaw V DC7A, ProLogis Park Wroclaw V, Ryszarda Chomicza, 55-080, Wrocław",
      "city": "Wrocław",
      "country": "Poland",
      "updated_at": "2026-04-19T15:05:44.894Z"
    },
    "prop_970ac44babeb77": {
      "lat": 51.4083612,
      "lng": 19.6292176,
      "source": "address_country_photon",
      "geocode_query": "Piotrkow DC2, Al. Generała Sikorskiego 81, 97-300, Piotrków Trybunalski, Poland",
      "address": "Piotrkow DC2, Al. Generała Sikorskiego 81, 97-300, Piotrków Trybunalski",
      "city": "Piotrków Trybunalski",
      "country": "Poland",
      "updated_at": "2026-04-19T15:05:45.280Z"
    },
    "prop_1d28caa126a56b": {
      "lat": 51.038703,
      "lng": 16.9295445,
      "source": "address_country_photon",
      "geocode_query": "Wroclaw V DC2, Ul. Ryszarda Chomicza 13A, 55-080, Wrocław, Poland",
      "address": "Wroclaw V DC2, Ul. Ryszarda Chomicza 13A, 55-080, Wrocław",
      "city": "Wrocław",
      "country": "Poland",
      "updated_at": "2026-04-19T15:05:45.466Z"
    },
    "prop_3ee6b28044cd5e": {
      "lat": 51.038703,
      "lng": 16.9295445,
      "source": "address_country_photon",
      "geocode_query": "Wroclaw V DC12, Ul. Ryszarda Chomicza 13A, 55-080, Wrocław, Poland",
      "address": "Wroclaw V DC12, Ul. Ryszarda Chomicza 13A, 55-080, Wrocław",
      "city": "Wrocław",
      "country": "Poland",
      "updated_at": "2026-04-19T15:05:45.817Z"
    },
    "prop_c1cb119e5413f7": {
      "lat": 51.4102961,
      "lng": 19.6304262,
      "source": "address_country_photon",
      "geocode_query": "Piotrkow DC3B, Al. Generała Sikorskiego 79, 97-300, Piotrków Trybunalski, Poland",
      "address": "Piotrkow DC3B, Al. Generała Sikorskiego 79, 97-300, Piotrków Trybunalski",
      "city": "Piotrków Trybunalski",
      "country": "Poland",
      "updated_at": "2026-04-19T15:05:46.329Z"
    },
    "prop_1611a0fa0c007a": {
      "lat": 51.0403439,
      "lng": 16.9259372,
      "source": "address_country_photon",
      "geocode_query": "Wroclaw V DC3, Ul. Ryszarda Chomicza 13B, 55-080, Wrocław, Poland",
      "address": "Wroclaw V DC3, Ul. Ryszarda Chomicza 13B, 55-080, Wrocław",
      "city": "Wrocław",
      "country": "Poland",
      "updated_at": "2026-04-19T15:05:46.476Z"
    },
    "prop_fd8dd8e8bb744f": {
      "lat": 51.0378553,
      "lng": 16.9249275,
      "source": "address_country_photon",
      "geocode_query": "Wroclaw V DC4, Ul. Ryszarda Chomicza 13C, 55-080, Wrocław, Poland",
      "address": "Wroclaw V DC4, Ul. Ryszarda Chomicza 13C, 55-080, Wrocław",
      "city": "Wrocław",
      "country": "Poland",
      "updated_at": "2026-04-19T15:05:47.046Z"
    },
    "prop_f04b0b36085ae9": {
      "lat": 51.0848743,
      "lng": 17.0399837,
      "source": "name_city_country_photon",
      "geocode_query": "Wroclaw III DC1, Wrocław, Poland",
      "address": "Wroclaw III DC1, ul. Graniczna 8a, 54-516, Wrocław",
      "city": "Wrocław",
      "country": "Poland",
      "updated_at": "2026-04-19T15:05:47.779Z"
    },
    "prop_96db79d6cb1e31": {
      "lat": 51.0848743,
      "lng": 17.0399837,
      "source": "name_city_country_photon",
      "geocode_query": "Wroclaw III DC3B, Wrocław, Poland",
      "address": "Wroclaw III DC3B, ul. Graniczna 8e, 54-610, Wrocław",
      "city": "Wrocław",
      "country": "Poland",
      "updated_at": "2026-04-19T15:05:48.798Z"
    },
    "prop_fc2aaf7288a38b": {
      "lat": 51.1062356,
      "lng": 16.9286445,
      "source": "name_city_country_photon",
      "geocode_query": "Wroclaw V DC2 Expansion, Wrocław, Poland",
      "address": "Wroclaw V DC2 Expansion, Ul. Ryszarda Chomicza 13A, 55-080, Wrocław",
      "city": "Wrocław",
      "country": "Poland",
      "updated_at": "2026-04-19T15:05:49.954Z"
    },
    "prop_fec638b5044a38": {
      "lat": 51.0848743,
      "lng": 17.0399837,
      "source": "name_city_country_photon",
      "geocode_query": "Wroclaw III DC3A, Wrocław, Poland",
      "address": "Wroclaw III DC3A, ul. Graniczna 8d, 54-610, Wrocław",
      "city": "Wrocław",
      "country": "Poland",
      "updated_at": "2026-04-19T15:05:50.835Z"
    },
    "prop_9d61e250ce758d": {
      "lat": 51.0410855,
      "lng": 16.93247,
      "source": "address_country_photon",
      "geocode_query": "Wroclaw V DC8B, ProLogis Park Wroclaw V, Ryszarda Chomicza, 55-080, Wrocław, Poland",
      "address": "Wroclaw V DC8B, ProLogis Park Wroclaw V, Ryszarda Chomicza, 55-080, Wrocław",
      "city": "Wrocław",
      "country": "Poland",
      "updated_at": "2026-04-19T15:05:51.236Z"
    },
    "prop_6345f9519d3df8": {
      "lat": 52.2030136,
      "lng": 20.6436706,
      "source": "address_country_photon",
      "geocode_query": "Blonie DC3, Kopytów 44c, 05-870, Błonie, Poland",
      "address": "Blonie DC3, Kopytów 44c, 05-870, Błonie",
      "city": "Błonie",
      "country": "Poland",
      "updated_at": "2026-04-19T15:05:51.421Z"
    },
    "prop_c0f8d6c616649c": {
      "lat": 52.2035358,
      "lng": 20.6469682,
      "source": "address_country_photon",
      "geocode_query": "Blonie DC1, Kopytów 44a, 05-870, Błonie, Poland",
      "address": "Blonie DC1, Kopytów 44a, 05-870, Błonie",
      "city": "Błonie",
      "country": "Poland",
      "updated_at": "2026-04-19T15:05:51.858Z"
    },
    "prop_d06f60370eeb99": {
      "lat": 52.2033914,
      "lng": 20.645225,
      "source": "address_country_photon",
      "geocode_query": "Blonie DC2, Kopytów 44b, 05-870, Błonie, Poland",
      "address": "Blonie DC2, Kopytów 44b, 05-870, Błonie",
      "city": "Błonie",
      "country": "Poland",
      "updated_at": "2026-04-19T15:05:52.085Z"
    },
    "prop_f9aaf5d9fe6b9f": {
      "lat": 51.0848743,
      "lng": 17.0399837,
      "source": "name_city_country_photon",
      "geocode_query": "Wroclaw III DC2B, Wrocław, Poland",
      "address": "Wroclaw III DC2B, ul.Graniczna 8c, 54-610, Wrocław",
      "city": "Wrocław",
      "country": "Poland",
      "updated_at": "2026-04-19T15:05:53.291Z"
    },
    "prop_d74e17392f362c": {
      "lat": 51.1079088,
      "lng": 16.9305426,
      "source": "name_city_country_photon",
      "geocode_query": "Wroclaw V DC1 & DC1B, Wrocław, Poland",
      "address": "Wroclaw V DC1 & DC1B, Ul. Ryszarda Chomicza 13A, 55-080, Wrocław",
      "city": "Wrocław",
      "country": "Poland",
      "updated_at": "2026-04-19T15:05:54.214Z"
    },
    "prop_81eef1f62e0c37": {
      "lat": 38.0247597,
      "lng": -1.168456,
      "source": "address_country_photon",
      "geocode_query": "Murcia, C. Campus Universitario 8, 30100, Murcia, Spain",
      "address": "Murcia, C. Campus Universitario 8, 30100, Murcia",
      "city": "Murcia",
      "country": "Spain",
      "updated_at": "2026-04-19T15:05:54.726Z"
    },
    "prop_b086a6028c1234": {
      "lat": 41.4137625,
      "lng": 2.2136368,
      "source": "address_country_photon",
      "geocode_query": "Barcelone, 59-69 Carrer del Maresme - Sant Martí, 8019, Barcelona, Spain",
      "address": "Barcelone, 59-69 Carrer del Maresme - Sant Martí, 8019, Barcelona",
      "city": "Barcelona",
      "country": "Spain",
      "updated_at": "2026-04-19T15:05:54.932Z"
    },
    "prop_59929e5d082494": {
      "lat": 36.5289521,
      "lng": -6.2953183,
      "source": "address_country_photon",
      "geocode_query": "Cadiz, 10 Pl. Catedral, 11005, Cádiz, Spain",
      "address": "Cadiz, 10 Pl. Catedral, 11005, Cádiz",
      "city": "Cádiz",
      "country": "Spain",
      "updated_at": "2026-04-19T15:05:55.157Z"
    },
    "prop_dd4c73d827ca8b": {
      "lat": 38.9805152,
      "lng": -1.8601758,
      "source": "address_country_photon",
      "geocode_query": "Albacete, C. Bachiller Sansón Carrasco 15, 2006, Albacete, Spain",
      "address": "Albacete, C. Bachiller Sansón Carrasco 15, 2006, Albacete",
      "city": "Albacete",
      "country": "Spain",
      "updated_at": "2026-04-19T15:05:55.751Z"
    },
    "prop_fd34d621a15cef": {
      "lat": 41.6147605,
      "lng": 0.6267842,
      "source": "name_city_country_photon",
      "geocode_query": "Lerida, Lleida, Spain",
      "address": "Lerida, Campus Universitari de Cappont - 75 Carrer de Jaume II, 25001, Lleida",
      "city": "Lleida",
      "country": "Spain",
      "updated_at": "2026-04-19T15:05:56.468Z"
    },
    "prop_e9b2f8b99211ba": {
      "lat": 39.994312,
      "lng": -0.0713962,
      "source": "address_country_photon",
      "geocode_query": "Castellon, Universitat JAUME I, 12006, Castellón de la Plana, Spain",
      "address": "Castellon, Universitat JAUME I, 12006, Castellón de la Plana",
      "city": "Castellón de la Plana",
      "country": "Spain",
      "updated_at": "2026-04-19T15:05:56.979Z"
    },
    "prop_27d828d497e3b1": {
      "lat": 39.5488076,
      "lng": -0.3893157,
      "source": "address_country_photon",
      "geocode_query": "Valence, 32 Carrer d'Almansa, Valencia, 46113, Montcada, Spain",
      "address": "Valence, 32 Carrer d'Almansa, Valencia, 46113, Montcada",
      "city": "Montcada",
      "country": "Spain",
      "updated_at": "2026-04-19T15:05:57.316Z"
    },
    "prop_9517f3ac246815": {
      "lat": 41.3463825,
      "lng": 1.6995213,
      "source": "name_city_country_photon",
      "geocode_query": "Penedes DC2, Penedès, Spain",
      "address": "Penedes DC2, Prologis Park Penedès, C/ Les Planes, 43717, Penedès",
      "city": "Penedès",
      "country": "Spain",
      "updated_at": "2026-04-19T15:05:58.207Z"
    },